{"count":11545,"items":[{"id":"674b2cd0f1233e766b890b8f","startTime":"2024-11-30 15:17:56.000000","endTime":"2024-11-30 23:36:58.000000","venueId":"4fdd25cde4b0ede3824071b1","lat":40.341148190971865,"lng":-74.97605728367924,"venue":{"id":"4fdd25cde4b0ede3824071b1","name":"Hugh Marshall Barn","url":"https:\/\/foursquare.com\/v\/hugh-marshall-barn\/4fdd25cde4b0ede3824071b1"}},{"id":"674a3c00e92cb90a3ba829ea","startTime":"2024-11-29 21:12:39.000000","endTime":"2024-11-30 15:17:56.000000","venueId":"5cc09554f870fd002c4f990f","lat":40.347577154505686,"lng":-75.0334406325166,"venue":{"id":"5cc09554f870fd002c4f990f","name":"Sticky Situations","url":"https:\/\/foursquare.com\/v\/sticky-situations\/5cc09554f870fd002c4f990f"}},{"id":"674a2636e92cb90a3b7f2472","startTime":"2024-11-29 20:37:55.000000","endTime":"2024-11-29 21:08:35.000000","venueId":"4c28da789eb19521e99d2959","lat":40.34869060443207,"lng":-75.03057654174786,"venue":{"id":"4c28da789eb19521e99d2959","name":"Peddler's Village","url":"https:\/\/foursquare.com\/v\/peddlers-village\/4c28da789eb19521e99d2959"}},{"id":"6747c16af4395b4aa1de0c92","startTime":"2024-11-28 01:03:38.000000","endTime":"2024-11-29 20:27:22.000000","venueId":"4fdd25cde4b0ede3824071b1","lat":40.34116528940217,"lng":-74.9757091679728,"venue":{"id":"4fdd25cde4b0ede3824071b1","name":"Hugh Marshall Barn","url":"https:\/\/foursquare.com\/v\/hugh-marshall-barn\/4fdd25cde4b0ede3824071b1"}},{"id":"6747a933e92cb90a3b4eb733","startTime":"2024-11-27 23:19:19.000000","endTime":"2024-11-28 00:54:17.000000","venueId":"4ad5f46df964a5202a0421e3","lat":40.36517644015198,"lng":-74.95389016579819,"venue":{"id":"4ad5f46df964a5202a0421e3","name":"Triumph Brewing","url":"https:\/\/foursquare.com\/v\/triumph-brewing\/4ad5f46df964a5202a0421e3"}},{"id":"67478888f1233e766b8591e3","startTime":"2024-11-27 21:00:51.000000","endTime":"2024-11-27 23:09:15.000000","venueId":"4fdd25cde4b0ede3824071b1","lat":40.34121134280885,"lng":-74.97594854218589,"venue":{"id":"4fdd25cde4b0ede3824071b1","name":"Hugh Marshall Barn","url":"https:\/\/foursquare.com\/v\/hugh-marshall-barn\/4fdd25cde4b0ede3824071b1"}},{"id":"674743bff4395b4aa1071b75","startTime":"2024-11-27 16:06:53.000000","endTime":"2024-11-27 17:29:41.000000","venueId":"4c1f56d6b306c928993d68b7","lat":41.97473904177633,"lng":-87.90873971504813,"venue":{"id":"4c1f56d6b306c928993d68b7","name":"Gate E15","url":"https:\/\/foursquare.com\/v\/gate-e15\/4c1f56d6b306c928993d68b7"}},{"id":"67473fc3f4395b4aa1fe4b85","startTime":"2024-11-27 15:49:58.000000","endTime":"2024-11-27 16:04:41.000000","venueId":"56ddb2de498e16de5da31d09","lat":41.97655342509798,"lng":-87.90555432598079,"venue":{"id":"56ddb2de498e16de5da31d09","name":"Summer House Santa Monica","url":"https:\/\/foursquare.com\/v\/summer-house-santa-monica\/56ddb2de498e16de5da31d09"}},{"id":"674502cbf4395b4aa1811051","startTime":"2024-11-25 23:05:43.000000","endTime":"2024-11-25 23:12:55.000000","venueId":"4ae3cf7df964a520199921e3","lat":41.98206498595348,"lng":-87.66848920418703,"venue":{"id":"4ae3cf7df964a520199921e3","name":"Edgewater Produce","url":"https:\/\/foursquare.com\/v\/edgewater-produce\/4ae3cf7df964a520199921e3"}},{"id":"6744f6a2e92cb90a3b00526c","startTime":"2024-11-25 22:13:02.000000","endTime":"2024-11-25 22:55:15.000000","venueId":"5f114ada9e5df36494eb979e","lat":41.969381677152235,"lng":-87.65588059241053,"venue":{"id":"5f114ada9e5df36494eb979e","name":"The Lawrence House","url":"https:\/\/foursquare.com\/v\/the-lawrence-house\/5f114ada9e5df36494eb979e"}},{"id":"67439e86f4395b4aa160c1e0","startTime":"2024-11-24 21:44:44.000000","endTime":"2024-11-25 01:48:10.000000","venueId":"53d6b0cf498e109fbaffb5fc","lat":42.09770044429181,"lng":-87.79164402044127,"venue":{"id":"53d6b0cf498e109fbaffb5fc","name":"NorthShore Immediate Care Center - Northfield","url":"https:\/\/foursquare.com\/v\/northshore-immediate-care-center--northfield\/53d6b0cf498e109fbaffb5fc"}},{"id":"67439b1df1233e766b51c27c","startTime":"2024-11-24 21:30:28.000000","endTime":"2024-11-24 21:38:32.000000","venueId":"530cb244498ec86e33cf983a","lat":42.100289588039324,"lng":-87.77147821749354,"venue":{"id":"530cb244498ec86e33cf983a","name":"Mariano's Fresh Market","url":"https:\/\/foursquare.com\/v\/marianos-fresh-market\/530cb244498ec86e33cf983a"}},{"id":"6742aba5f4395b4aa1c8002f","startTime":"2024-11-24 04:28:50.000000","endTime":"2024-11-24 04:36:34.000000","venueId":"40b28c80f964a52017fd1ee3","lat":41.91367993467059,"lng":-87.66254167700312,"venue":{"id":"40b28c80f964a52017fd1ee3","name":"The Hideout","url":"https:\/\/foursquare.com\/v\/the-hideout\/40b28c80f964a52017fd1ee3"}},{"id":"67428289f1233e766b8fe875","startTime":"2024-11-24 01:33:02.000000","endTime":"2024-11-24 04:13:51.000000","venueId":"666e5e95bd2049244fa58826","lat":41.90658306205713,"lng":-87.65912224437245,"venue":{"id":"666e5e95bd2049244fa58826","name":"Three Top Lounge","url":"https:\/\/foursquare.com\/v\/three-top-lounge\/666e5e95bd2049244fa58826"}},{"id":"67427359e92cb90a3b18cb4c","startTime":"2024-11-24 00:29:10.000000","endTime":"2024-11-24 01:25:35.000000","venueId":"4c17df524ff90f47d4910d49","lat":41.90263994130908,"lng":-87.66531579134677,"venue":{"id":"4c17df524ff90f47d4910d49","name":"Crater Food & Liquor","url":"https:\/\/foursquare.com\/v\/crater-food--liquor\/4c17df524ff90f47d4910d49"}},{"id":"6742701dc407654cdcd6815b","startTime":"2024-11-24 00:15:05.000000","endTime":"2024-11-24 00:22:10.000000","venueId":"4b13e2c4f964a5201e9a23e3","lat":41.9027522921681,"lng":-87.66560474404237,"venue":{"id":"4b13e2c4f964a5201e9a23e3","name":"Planned Parenthood","url":"https:\/\/foursquare.com\/v\/planned-parenthood\/4b13e2c4f964a5201e9a23e3"}},{"id":"67413a40c407654cdcd815e1","startTime":"2024-11-23 02:13:19.000000","endTime":"2024-11-23 03:41:46.000000","venueId":"556b5527498e3bb54be5ff78","lat":41.88208926856207,"lng":-87.62512846456616,"venue":{"id":"556b5527498e3bb54be5ff78","name":"Cherry Circle Room","url":"https:\/\/foursquare.com\/v\/cherry-circle-room\/556b5527498e3bb54be5ff78"}},{"id":"67411b95c407654cdcaff9e7","startTime":"2024-11-23 00:02:25.000000","endTime":"2024-11-23 01:57:39.000000","venueId":"4a7b9022f964a52069eb1fe3","lat":41.87324150394324,"lng":-87.62448775861463,"venue":{"id":"4a7b9022f964a52069eb1fe3","name":"Mercat a la Planxa","url":"https:\/\/foursquare.com\/v\/mercat-a-la-planxa\/4a7b9022f964a52069eb1fe3"}},{"id":"673a7ba0f8732179ebb2d135","startTime":"2024-11-17 23:25:37.000000","endTime":"2024-11-18 03:51:32.000000","venueId":"40b28c80f964a5204bff1ee3","lat":41.94176825323407,"lng":-87.65423777743551,"venue":{"id":"40b28c80f964a5204bff1ee3","name":"Sheffield's Beer & Wine Garden","url":"https:\/\/foursquare.com\/v\/sheffields-beer--wine-garden\/40b28c80f964a5204bff1ee3"}},{"id":"673a65f7ddf0e34a164e04db","startTime":"2024-11-17 21:52:53.000000","endTime":"2024-11-17 22:03:12.000000","venueId":"4b15b142f964a520a3b223e3","lat":41.869321387132516,"lng":-87.62711958909021,"venue":{"id":"4b15b142f964a520a3b223e3","name":"Kriser's Natural Pet","url":"https:\/\/foursquare.com\/v\/krisers-natural-pet\/4b15b142f964a520a3b223e3"}},{"id":"673a61e2f8732179eb91daaa","startTime":"2024-11-17 21:35:39.000000","endTime":"2024-11-17 21:38:30.000000","venueId":"4f35b145e4b0edf91b18c82f","lat":41.86801406625351,"lng":-87.61801881433185,"venue":{"id":"4f35b145e4b0edf91b18c82f","name":"Museum Park","url":"https:\/\/foursquare.com\/v\/museum-park\/4f35b145e4b0edf91b18c82f"}},{"id":"673a2bb57270f6744e323719","startTime":"2024-11-17 17:44:41.000000","endTime":"2024-11-17 21:29:30.000000","venueId":"45280395f964a520113b1fe3","lat":41.85991431781843,"lng":-87.61667308965146,"venue":{"id":"45280395f964a520113b1fe3","name":"Soldier Field","url":"https:\/\/foursquare.com\/v\/soldier-field\/45280395f964a520113b1fe3"}},{"id":"673a26f47270f6744e290d0f","startTime":"2024-11-17 17:24:32.000000","endTime":"2024-11-17 17:33:26.000000","venueId":"59ece5d66adbf520ce747cc4","lat":41.86264575186993,"lng":-87.61888569918437,"venue":{"id":"59ece5d66adbf520ce747cc4","name":"The Budlong","url":"https:\/\/foursquare.com\/v\/the-budlong\/59ece5d66adbf520ce747cc4"}},{"id":"673a05217270f6744ee627b5","startTime":"2024-11-17 14:59:52.000000","endTime":"2024-11-17 15:02:18.000000","venueId":"5b15ed56cbcdee002c59b8e8","lat":41.97851241802924,"lng":-87.6683880397319,"venue":{"id":"5b15ed56cbcdee002c59b8e8","name":"Lost Larson Bakery","url":"https:\/\/foursquare.com\/v\/lost-larson-bakery\/5b15ed56cbcdee002c59b8e8"}},{"id":"673a01f4c6cfe807180f5838","startTime":"2024-11-17 14:47:15.000000","endTime":"2024-11-17 14:56:06.000000","venueId":"4b0582cbf964a520ee5822e3","lat":41.98242171853966,"lng":-87.66937996087391,"venue":{"id":"4b0582cbf964a520ee5822e3","name":"Jewel-Osco","url":"https:\/\/foursquare.com\/v\/jewelosco\/4b0582cbf964a520ee5822e3"}},{"id":"6739637bddf0e34a16a2b16d","startTime":"2024-11-17 03:30:17.000000","endTime":"2024-11-17 05:04:35.000000","venueId":"652ea0ca22c8a90befaec07b","lat":41.92047345290276,"lng":-87.64869296238534,"venue":{"id":"652ea0ca22c8a90befaec07b","name":"John\u2019s Food And Wine","url":"https:\/\/foursquare.com\/v\/johns-food-and-wine\/652ea0ca22c8a90befaec07b"}},{"id":"673951177270f6744ed30358","startTime":"2024-11-17 02:12:26.000000","endTime":"2024-11-17 03:21:29.000000","venueId":"581d4e2b89cfe560cb91eeba","lat":41.91780565352199,"lng":-87.64846649466787,"venue":{"id":"581d4e2b89cfe560cb91eeba","name":"J9 Wine Bar","url":"https:\/\/foursquare.com\/v\/j9-wine-bar\/581d4e2b89cfe560cb91eeba"}},{"id":"67394f9d7270f6744ed16fb2","startTime":"2024-11-17 02:05:52.000000","endTime":"2024-11-17 02:09:48.000000","venueId":"652ea0ca22c8a90befaec07b","lat":41.92051482439937,"lng":-87.64856796679726,"venue":{"id":"652ea0ca22c8a90befaec07b","name":"John\u2019s Food And Wine","url":"https:\/\/foursquare.com\/v\/johns-food-and-wine\/652ea0ca22c8a90befaec07b"}},{"id":"67390126c6cfe8071899bc30","startTime":"2024-11-16 20:30:48.000000","endTime":"2024-11-16 21:02:10.000000","venueId":"56aad837498ebfb7f15d8c40","lat":41.96757077277166,"lng":-87.68766557196611,"venue":{"id":"56aad837498ebfb7f15d8c40","name":"Jerry's","url":"https:\/\/foursquare.com\/v\/jerrys\/56aad837498ebfb7f15d8c40"}},{"id":"6738fad7c6cfe807188e387e","startTime":"2024-11-16 20:03:55.000000","endTime":"2024-11-16 20:21:24.000000","venueId":"647141fcf6f1f469e2880395","lat":41.96932562910703,"lng":-87.68902330571468,"venue":{"id":"647141fcf6f1f469e2880395","name":"Sideshow Gelato","url":"https:\/\/foursquare.com\/v\/sideshow-gelato\/647141fcf6f1f469e2880395"}},{"id":"6738f178ddf0e34a160880cc","startTime":"2024-11-16 19:24:01.000000","endTime":"2024-11-16 19:57:38.000000","venueId":"4b64e8e7f964a52031d92ae3","lat":41.97312465378792,"lng":-87.69150160588461,"venue":{"id":"4b64e8e7f964a52031d92ae3","name":"Jibek Jolu","url":"https:\/\/foursquare.com\/v\/jibek-jolu\/4b64e8e7f964a52031d92ae3"}},{"id":"6738e7787270f6744e389d06","startTime":"2024-11-16 18:41:32.000000","endTime":"2024-11-16 19:11:22.000000","venueId":"51bbb4b7498e44c2bd494205","lat":41.968503412563095,"lng":-87.69169894355896,"venue":{"id":"51bbb4b7498e44c2bd494205","name":"Anjani Food & Liquor Inc.","url":"https:\/\/foursquare.com\/v\/anjani-food--liquor-inc\/51bbb4b7498e44c2bd494205"}},{"id":"6738d621c6cfe80718422162","startTime":"2024-11-16 17:27:20.000000","endTime":"2024-11-16 18:25:48.000000","venueId":"4af61997f964a5202c0122e3","lat":41.96792014032769,"lng":-87.68819024374835,"venue":{"id":"4af61997f964a5202c0122e3","name":"Gene\u2019s Sausage Shop","url":"https:\/\/foursquare.com\/v\/genes-sausage-shop\/4af61997f964a5202c0122e3"}},{"id":"6738ce6cddf0e34a16bd112a","startTime":"2024-11-16 16:55:02.000000","endTime":"2024-11-16 16:59:15.000000","venueId":"5ba8cecb033693002c6c407f","lat":41.980642476273715,"lng":-87.66821509276306,"venue":{"id":"5ba8cecb033693002c6c407f","name":"Colectivo Coffee Roasters","url":"https:\/\/foursquare.com\/v\/colectivo-coffee-roasters\/5ba8cecb033693002c6c407f"}},{"id":"673829077270f6744eda1fa9","startTime":"2024-11-16 03:54:56.000000","endTime":"2024-11-16 05:08:33.000000","venueId":"40b28c80f964a5206bfe1ee3","lat":41.975245255209025,"lng":-87.65922802015724,"venue":{"id":"40b28c80f964a5206bfe1ee3","name":"Big Chicks","url":"https:\/\/foursquare.com\/v\/big-chicks\/40b28c80f964a5206bfe1ee3"}},{"id":"67380dac7270f6744ebb69f2","startTime":"2024-11-16 03:12:41.000000","endTime":"2024-11-16 03:16:36.000000","venueId":"4e641296d4c06542aba9f6e5","lat":42.04095287711055,"lng":-87.80596253617942,"venue":{"id":"4e641296d4c06542aba9f6e5","name":"TAVA Contemporary Indian Cuisine","url":"https:\/\/foursquare.com\/v\/tava-contemporary-indian-cuisine\/4e641296d4c06542aba9f6e5"}},{"id":"6737f461ddf0e34a16578c9e","startTime":"2024-11-16 01:24:03.000000","endTime":"2024-11-16 03:09:40.000000","venueId":"4badfceef964a52056783be3","lat":42.03848418065871,"lng":-87.81817489828306,"venue":{"id":"4badfceef964a52056783be3","name":"Notre Dame College Prep","url":"https:\/\/foursquare.com\/v\/notre-dame-college-prep\/4badfceef964a52056783be3"}},{"id":"67377f38f8732179ebcadb4a","startTime":"2024-11-15 17:04:11.000000","endTime":"2024-11-15 20:17:22.000000","venueId":"593de0295d0fea5347167469","lat":41.54363190778923,"lng":-87.85584121979818,"venue":{"id":"593de0295d0fea5347167469","name":"Balagio Italian","url":"https:\/\/foursquare.com\/v\/balagio-italian\/593de0295d0fea5347167469"}},{"id":"67376d477270f6744e9bfce5","startTime":"2024-11-15 15:47:25.000000","endTime":"2024-11-15 16:54:47.000000","venueId":"4bb8c6c4314e95216ebd489d","lat":41.533357065855434,"lng":-87.89564167442623,"venue":{"id":"4bb8c6c4314e95216ebd489d","name":"St. Mary Parish","url":"https:\/\/foursquare.com\/v\/st-mary-parish\/4bb8c6c4314e95216ebd489d"}},{"id":"6736ddbdc6cfe80718c9f55a","startTime":"2024-11-15 05:35:24.000000","endTime":"2024-11-15 06:26:39.000000","venueId":"5ca6df274aa3f8002c074c23","lat":41.8857141149924,"lng":-87.64901077558154,"venue":{"id":"5ca6df274aa3f8002c074c23","name":"Lazy Bird","url":"https:\/\/foursquare.com\/v\/lazy-bird\/5ca6df274aa3f8002c074c23"}},{"id":"6736b31af8732179eb76d441","startTime":"2024-11-15 02:29:40.000000","endTime":"2024-11-15 05:29:19.000000","venueId":"62993181de9a24312ba37294","lat":41.8873947119606,"lng":-87.65205070276575,"venue":{"id":"62993181de9a24312ba37294","name":"Rooftop Cinema Club","url":"https:\/\/foursquare.com\/v\/rooftop-cinema-club\/62993181de9a24312ba37294"}},{"id":"6736a358ddf0e34a161c5890","startTime":"2024-11-15 01:25:39.000000","endTime":"2024-11-15 02:25:43.000000","venueId":"6408b3256bfe407e3dad0739","lat":41.88869326162828,"lng":-87.65061057234313,"venue":{"id":"6408b3256bfe407e3dad0739","name":"Guinness Open Gate Brewery Chicago","url":"https:\/\/foursquare.com\/v\/guinness-open-gate-brewery-chicago\/6408b3256bfe407e3dad0739"}},{"id":"6736608ef8732179ebfba0c5","startTime":"2024-11-14 20:41:45.000000","endTime":"2024-11-14 22:45:36.000000","venueId":"4d1521036c8b5481d275dccc","lat":41.61647734658401,"lng":-87.8396286022262,"venue":{"id":"4d1521036c8b5481d275dccc","name":"Sheehy & Sons Funeral Home","url":"https:\/\/foursquare.com\/v\/sheehy--sons-funeral-home\/4d1521036c8b5481d275dccc"}},{"id":"67365fdac6cfe8071823ab36","startTime":"2024-11-14 00:50:26.000000","endTime":"2024-11-14 19:28:51.000000","venueId":"6425898ca044344b67a8693a","lat":41.97115336125585,"lng":-87.66355784343354,"venue":{"id":"6425898ca044344b67a8693a","name":"The Understudy","url":"https:\/\/foursquare.com\/v\/the-understudy\/6425898ca044344b67a8693a"}},{"id":"67352c85fae367365e9127d3","startTime":"2024-11-13 22:46:52.000000","endTime":"2024-11-13 22:53:39.000000","venueId":"49ea0eb8f964a5201b661fe3","lat":41.94911909705739,"lng":-87.65342398745766,"venue":{"id":"49ea0eb8f964a5201b661fe3","name":"Murphy's Bleachers","url":"https:\/\/foursquare.com\/v\/murphys-bleachers\/49ea0eb8f964a5201b661fe3"}},{"id":"67352a45fe3e1d30a6c7a835","startTime":"2024-11-13 22:37:56.000000","endTime":"2024-11-13 22:40:13.000000","venueId":"4ab16e88f964a520766920e3","lat":41.93557685510455,"lng":-87.65327461793662,"venue":{"id":"4ab16e88f964a520766920e3","name":"CTA - Wellington","url":"https:\/\/foursquare.com\/v\/cta--wellington\/4ab16e88f964a520766920e3"}},{"id":"6734f3c2fae367365e316c5e","startTime":"2024-11-13 18:45:07.000000","endTime":"2024-11-13 18:50:05.000000","venueId":"6186dff82420314039eb5f7c","lat":41.88311750128133,"lng":-87.62847351627263,"venue":{"id":"6186dff82420314039eb5f7c","name":"Bhoomi","url":"https:\/\/foursquare.com\/v\/bhoomi\/6186dff82420314039eb5f7c"}},{"id":"6733e25752def43454de4d76","startTime":"2024-11-12 23:18:08.000000","endTime":"2024-11-12 23:23:43.000000","venueId":"4ae3cf7df964a520199921e3","lat":41.98201062486826,"lng":-87.66841727173029,"venue":{"id":"4ae3cf7df964a520199921e3","name":"Edgewater Produce","url":"https:\/\/foursquare.com\/v\/edgewater-produce\/4ae3cf7df964a520199921e3"}},{"id":"6732748780170856da034d4f","startTime":"2024-11-11 21:16:59.000000","endTime":"2024-11-12 03:11:13.000000","venueId":"58cdce93c9602779d100f553","lat":41.85474249781641,"lng":-87.66381791097298,"venue":{"id":"58cdce93c9602779d100f553","name":"Alulu","url":"https:\/\/foursquare.com\/v\/alulu\/58cdce93c9602779d100f553"}},{"id":"673235fa80170856da8d6501","startTime":"2024-11-11 16:51:06.000000","endTime":"2024-11-11 16:52:07.000000","venueId":"4c18e38f838020a108d0e461","lat":43.072101555865956,"lng":-89.401078569133,"venue":{"id":"4c18e38f838020a108d0e461","name":"UW Business Career Center","url":"https:\/\/foursquare.com\/v\/uw-business-career-center\/4c18e38f838020a108d0e461"}},{"id":"6732212d80170856da60b1ed","startTime":"2024-11-11 15:22:20.000000","endTime":"2024-11-11 16:34:36.000000","venueId":"635b151ee5d88c0294675be9","lat":43.10672269370724,"lng":-89.35104980572886,"venue":{"id":"635b151ee5d88c0294675be9","name":"Young Blood Beer Co.","url":"https:\/\/foursquare.com\/v\/young-blood-beer-co\/635b151ee5d88c0294675be9"}},{"id":"67321d59496ca625b83f825b","startTime":"2024-11-11 15:05:45.000000","endTime":"2024-11-11 15:08:51.000000","venueId":"562bc80c498e107a3fa817e6","lat":43.07325403446919,"lng":-89.39400356118685,"venue":{"id":"562bc80c498e107a3fa817e6","name":"Madistan","url":"https:\/\/foursquare.com\/v\/madistan\/562bc80c498e107a3fa817e6"}},{"id":"673199a0829bc243e0b99c9f","startTime":"2024-11-11 05:43:00.000000","endTime":"2024-11-11 14:47:54.000000","venueId":"4ae9c257f964a52025b621e3","lat":43.07286303085088,"lng":-89.39630619484286,"venue":{"id":"4ae9c257f964a52025b621e3","name":"Fluno Center","url":"https:\/\/foursquare.com\/v\/fluno-center\/4ae9c257f964a52025b621e3"}},{"id":"673197c1496ca625b858f668","startTime":"2024-11-11 02:59:26.000000","endTime":"2024-11-11 05:35:28.000000","venueId":"56cd0e99cd109364c9000ba4","lat":43.08131491211429,"lng":-89.38247705594301,"venue":{"id":"56cd0e99cd109364c9000ba4","name":"The Robin Room","url":"https:\/\/foursquare.com\/v\/the-robin-room\/56cd0e99cd109364c9000ba4"}},{"id":"67316e2d829bc243e08bb724","startTime":"2024-11-11 02:37:38.000000","endTime":"2024-11-11 02:50:08.000000","venueId":"4ae9c257f964a52025b621e3","lat":43.07284007060878,"lng":-89.39638986667272,"venue":{"id":"4ae9c257f964a52025b621e3","name":"Fluno Center","url":"https:\/\/foursquare.com\/v\/fluno-center\/4ae9c257f964a52025b621e3"}},{"id":"673156b0496ca625b818c7c3","startTime":"2024-11-11 00:58:22.000000","endTime":"2024-11-11 02:30:26.000000","venueId":"62633a1516ee9f5a6155e967","lat":43.075692562993666,"lng":-89.37683288608332,"venue":{"id":"62633a1516ee9f5a6155e967","name":"Hutong","url":"https:\/\/foursquare.com\/v\/hutong\/62633a1516ee9f5a6155e967"}},{"id":"6731544ca5255e05238157a6","startTime":"2024-11-11 00:48:07.000000","endTime":"2024-11-11 00:50:28.000000","venueId":"654acb9256e0e710deb1302a","lat":43.078030950237995,"lng":-89.37197013636188,"venue":{"id":"654acb9256e0e710deb1302a","name":"Ahan","url":"https:\/\/foursquare.com\/v\/ahan\/654acb9256e0e710deb1302a"}},{"id":"6731518580170856da2ccaf0","startTime":"2024-11-11 00:36:21.000000","endTime":"2024-11-11 00:39:48.000000","venueId":"507a38b3e4b06fd3aa3b6477","lat":43.07298393786106,"lng":-89.39396183118652,"venue":{"id":"507a38b3e4b06fd3aa3b6477","name":"Embassy Apartments","url":"https:\/\/foursquare.com\/v\/embassy-apartments\/507a38b3e4b06fd3aa3b6477"}},{"id":"67312e8680170856daff9076","startTime":"2024-11-10 22:06:15.000000","endTime":"2024-11-11 00:27:30.000000","venueId":"41326e00f964a520e9151fe3","lat":43.07651688716998,"lng":-89.39985790272951,"venue":{"id":"41326e00f964a520e9151fe3","name":"Der Rathskeller","url":"https:\/\/foursquare.com\/v\/der-rathskeller\/41326e00f964a520e9151fe3"}},{"id":"67312c2d496ca625b8e2f187","startTime":"2024-11-10 21:56:12.000000","endTime":"2024-11-10 21:57:57.000000","venueId":"4b4e6d56f964a5205ced26e3","lat":43.073236079085355,"lng":-89.40232697633549,"venue":{"id":"4b4e6d56f964a5205ced26e3","name":"Grainger Hall","url":"https:\/\/foursquare.com\/v\/grainger-hall\/4b4e6d56f964a5205ced26e3"}},{"id":"673119f980170856dae0707c","startTime":"2024-11-10 20:39:16.000000","endTime":"2024-11-10 21:50:01.000000","venueId":"518d7e93498ee0e3790df10e","lat":43.07301942294951,"lng":-89.39621410504877,"venue":{"id":"518d7e93498ee0e3790df10e","name":"Sushi Express","url":"https:\/\/foursquare.com\/v\/sushi-express\/518d7e93498ee0e3790df10e"}},{"id":"6731102d496ca625b8b5fa4c","startTime":"2024-11-10 19:57:19.000000","endTime":"2024-11-10 20:00:07.000000","venueId":"50560fd8e4b0e932c985c85d","lat":42.996123121430614,"lng":-89.20924636963716,"venue":{"id":"50560fd8e4b0e932c985c85d","name":"Pleasant Springs Orchard","url":"https:\/\/foursquare.com\/v\/pleasant-springs-orchard\/50560fd8e4b0e932c985c85d"}},{"id":"673102ef829bc243e0fc3227","startTime":"2024-11-10 19:00:08.000000","endTime":"2024-11-10 19:33:20.000000","venueId":"5ba3c256b37e2b002c9bcece","lat":43.08115042559309,"lng":-89.36878189083691,"venue":{"id":"5ba3c256b37e2b002c9bcece","name":"Alimentari","url":"https:\/\/foursquare.com\/v\/alimentari\/5ba3c256b37e2b002c9bcece"}},{"id":"6730e87b829bc243e0c75d12","startTime":"2024-11-10 17:08:02.000000","endTime":"2024-11-10 18:33:03.000000","venueId":"4b242b74f964a520cc6224e3","lat":43.07297555880845,"lng":-89.39604715788631,"venue":{"id":"4b242b74f964a520cc6224e3","name":"Ian's Pizza by the Slice","url":"https:\/\/foursquare.com\/v\/ians-pizza-by-the-slice\/4b242b74f964a520cc6224e3"}},{"id":"6730e0bf496ca625b85897b0","startTime":"2024-11-10 16:34:44.000000","endTime":"2024-11-10 16:47:16.000000","venueId":"4ae9c257f964a52025b621e3","lat":43.07272142139198,"lng":-89.39632975014256,"venue":{"id":"4ae9c257f964a52025b621e3","name":"Fluno Center","url":"https:\/\/foursquare.com\/v\/fluno-center\/4ae9c257f964a52025b621e3"}},{"id":"6730ceeda5255e05239ebb1e","startTime":"2024-11-10 15:18:23.000000","endTime":"2024-11-10 16:20:45.000000","venueId":"4b141851f964a520369d23e3","lat":43.074173366025626,"lng":-89.38331452550221,"venue":{"id":"4b141851f964a520369d23e3","name":"Wisconsin State Capitol","url":"https:\/\/foursquare.com\/v\/wisconsin-state-capitol\/4b141851f964a520369d23e3"}},{"id":"6730c900a5255e052392225c","startTime":"2024-11-10 14:53:07.000000","endTime":"2024-11-10 15:02:24.000000","venueId":"4c621b9ffa7bc9285e900d27","lat":43.06818306197369,"lng":-89.40126348468571,"venue":{"id":"4c621b9ffa7bc9285e900d27","name":"Park Regent Apartments","url":"https:\/\/foursquare.com\/v\/park-regent-apartments\/4c621b9ffa7bc9285e900d27"}},{"id":"6730be7680170856da2ad2d8","startTime":"2024-11-10 14:08:52.000000","endTime":"2024-11-10 14:40:56.000000","venueId":"4b01bcfbf964a520024522e3","lat":43.06774081638585,"lng":-89.40653403091807,"venue":{"id":"4b01bcfbf964a520024522e3","name":"Indie Coffee","url":"https:\/\/foursquare.com\/v\/indie-coffee\/4b01bcfbf964a520024522e3"}},{"id":"6730b9cc829bc243e0664972","startTime":"2024-11-10 13:48:19.000000","endTime":"2024-11-10 13:50:56.000000","venueId":"4e15fec118a8addae8cf53e3","lat":43.05681899317579,"lng":-89.40368605586595,"venue":{"id":"4e15fec118a8addae8cf53e3","name":"Running The Uw Arboretum Trails","url":"https:\/\/foursquare.com\/v\/running-the-uw-arboretum-trails\/4e15fec118a8addae8cf53e3"}},{"id":"6730b42280170856da164c7a","startTime":"2024-11-10 13:24:25.000000","endTime":"2024-11-10 13:28:36.000000","venueId":"4f7e52cfe4b0b58903fa6c5d","lat":43.06587169521884,"lng":-89.39442414657704,"venue":{"id":"4f7e52cfe4b0b58903fa6c5d","name":"labor Place","url":"https:\/\/foursquare.com\/v\/labor-place\/4f7e52cfe4b0b58903fa6c5d"}},{"id":"6730b12680170856da1088fd","startTime":"2024-11-10 13:11:06.000000","endTime":"2024-11-10 13:19:46.000000","venueId":"41326e00f964a520e7151fe3","lat":43.06684046814548,"lng":-89.39290747485774,"venue":{"id":"41326e00f964a520e7151fe3","name":"Main Depot","url":"https:\/\/foursquare.com\/v\/main-depot\/41326e00f964a520e7151fe3"}},{"id":"673039d9829bc243e09d4141","startTime":"2024-11-10 04:42:15.000000","endTime":"2024-11-10 12:59:04.000000","venueId":"4ae9c257f964a52025b621e3","lat":43.07284492149963,"lng":-89.39637588525221,"venue":{"id":"4ae9c257f964a52025b621e3","name":"Fluno Center","url":"https:\/\/foursquare.com\/v\/fluno-center\/4ae9c257f964a52025b621e3"}},{"id":"67301a9f496ca625b81b175c","startTime":"2024-11-10 02:28:51.000000","endTime":"2024-11-10 04:35:15.000000","venueId":"60f7641bafec5f5d08b3c366","lat":43.068164310533575,"lng":-89.39497923592484,"venue":{"id":"60f7641bafec5f5d08b3c366","name":"The Harvey House","url":"https:\/\/foursquare.com\/v\/the-harvey-house\/60f7641bafec5f5d08b3c366"}},{"id":"673011fa829bc243e070813f","startTime":"2024-11-10 01:50:05.000000","endTime":"2024-11-10 02:24:33.000000","venueId":"4aea28ebf964a520deb921e3","lat":43.072705359422756,"lng":-89.39605644278251,"venue":{"id":"4aea28ebf964a520deb921e3","name":"Dotty Dumpling's Dowry","url":"https:\/\/foursquare.com\/v\/dotty-dumplings-dowry\/4aea28ebf964a520deb921e3"}},{"id":"67301091829bc243e06f0498","startTime":"2024-11-10 01:46:20.000000","endTime":"2024-11-10 01:47:38.000000","venueId":"4ae9c257f964a52025b621e3","lat":43.07302586681134,"lng":-89.3966300428696,"venue":{"id":"4ae9c257f964a52025b621e3","name":"Fluno Center","url":"https:\/\/foursquare.com\/v\/fluno-center\/4ae9c257f964a52025b621e3"}},{"id":"672fb7efa5255e0523f80daa","startTime":"2024-11-09 19:28:31.000000","endTime":"2024-11-09 19:53:51.000000","venueId":"4c75bf76d8948cfa2cbf68da","lat":41.95779251999921,"lng":-87.65468086988778,"venue":{"id":"4c75bf76d8948cfa2cbf68da","name":"CesarLuna Hair Salon","url":"https:\/\/foursquare.com\/v\/cesarluna-hair-salon\/4c75bf76d8948cfa2cbf68da"}},{"id":"672fad1780170856da8f4f7e","startTime":"2024-11-09 18:42:11.000000","endTime":"2024-11-09 18:48:44.000000","venueId":"4a8c14f5f964a520ef0c20e3","lat":41.832297212341835,"lng":-87.63069557041938,"venue":{"id":"4a8c14f5f964a520ef0c20e3","name":"CTA - Sox-35th","url":"https:\/\/foursquare.com\/v\/cta--sox35th\/4a8c14f5f964a520ef0c20e3"}},{"id":"672fa5cd496ca625b8650a0b","startTime":"2024-11-09 18:10:32.000000","endTime":"2024-11-09 18:30:17.000000","venueId":"4d1fff80b69c6dcbcb2b6c95","lat":41.831196999804995,"lng":-87.62013483264109,"venue":{"id":"4d1fff80b69c6dcbcb2b6c95","name":"Southtown Sub","url":"https:\/\/foursquare.com\/v\/southtown-sub\/4d1fff80b69c6dcbcb2b6c95"}},{"id":"672f888ca5255e05238c54da","startTime":"2024-11-09 16:05:41.000000","endTime":"2024-11-09 18:07:31.000000","venueId":"4b82b546f964a520a2df30e3","lat":41.831169499751084,"lng":-87.62351376593905,"venue":{"id":"4b82b546f964a520a2df30e3","name":"Chicago Police Headquarters","url":"https:\/\/foursquare.com\/v\/chicago-police-headquarters\/4b82b546f964a520a2df30e3"}},{"id":"672f7c6c496ca625b802e352","startTime":"2024-11-09 15:14:20.000000","endTime":"2024-11-09 15:18:55.000000","venueId":"6414e8323734c91c6c7dcc91","lat":41.97599918785432,"lng":-87.65893932807303,"venue":{"id":"6414e8323734c91c6c7dcc91","name":"Penelope\u2019s Vegan Taqueria","url":"https:\/\/foursquare.com\/v\/penelopes-vegan-taqueria\/6414e8323734c91c6c7dcc91"}},{"id":"672e996c80170856dab755d7","startTime":"2024-11-08 23:05:55.000000","endTime":"2024-11-08 23:12:44.000000","venueId":"4ae3cf7df964a520199921e3","lat":41.98205179523949,"lng":-87.66853762309371,"venue":{"id":"4ae3cf7df964a520199921e3","name":"Edgewater Produce","url":"https:\/\/foursquare.com\/v\/edgewater-produce\/4ae3cf7df964a520199921e3"}},{"id":"672e689480170856da5db660","startTime":"2024-11-08 00:01:37.000000","endTime":"2024-11-08 19:37:54.000000","venueId":"6425898ca044344b67a8693a","lat":41.978860636521325,"lng":-87.66241152689832,"venue":{"id":"6425898ca044344b67a8693a","name":"The Understudy","url":"https:\/\/foursquare.com\/v\/the-understudy\/6425898ca044344b67a8693a"}},{"id":"672d3c8e80170856da6580da","startTime":"2024-11-07 22:17:22.000000","endTime":"2024-11-07 22:21:17.000000","venueId":"4b182fd6f964a52089ce23e3","lat":41.88176560008273,"lng":-87.63059417152475,"venue":{"id":"4b182fd6f964a52089ce23e3","name":"Starbucks","url":"https:\/\/foursquare.com\/v\/starbucks\/4b182fd6f964a52089ce23e3"}},{"id":"672cc0ef829bc243e0aef366","startTime":"2024-11-07 13:29:24.000000","endTime":"2024-11-07 13:31:23.000000","venueId":"4b53981af964a520e0a327e3","lat":41.97177640762412,"lng":-87.65846267357331,"venue":{"id":"4b53981af964a520e0a327e3","name":"Tai Nam","url":"https:\/\/foursquare.com\/v\/tai-nam\/4b53981af964a520e0a327e3"}},{"id":"672cbf77496ca625b84d4820","startTime":"2024-11-07 13:24:03.000000","endTime":"2024-11-07 13:26:23.000000","venueId":"6414e8323734c91c6c7dcc91","lat":41.9763033436687,"lng":-87.65843351044974,"venue":{"id":"6414e8323734c91c6c7dcc91","name":"Penelope\u2019s Vegan Taqueria","url":"https:\/\/foursquare.com\/v\/penelopes-vegan-taqueria\/6414e8323734c91c6c7dcc91"}},{"id":"672ab8dd829bc243e0835882","startTime":"2024-11-06 00:30:59.000000","endTime":"2024-11-06 00:45:16.000000","venueId":"4ae3cf7df964a520199921e3","lat":41.98202940906363,"lng":-87.66840248643614,"venue":{"id":"4ae3cf7df964a520199921e3","name":"Edgewater Produce","url":"https:\/\/foursquare.com\/v\/edgewater-produce\/4ae3cf7df964a520199921e3"}},{"id":"672a365095070803c63f2ea7","startTime":"2024-11-05 15:13:53.000000","endTime":"2024-11-05 15:18:03.000000","venueId":"57810e09498eac89bc58c52a","lat":41.98950646718277,"lng":-87.6600181511098,"venue":{"id":"57810e09498eac89bc58c52a","name":"Edgewater Farmer's Market","url":"https:\/\/foursquare.com\/v\/edgewater-farmers-market\/57810e09498eac89bc58c52a"}},{"id":"67298a5395070803c62188c1","startTime":"2024-11-05 03:00:32.000000","endTime":"2024-11-05 03:07:59.000000","venueId":"4dfc110145ddebdfeaa9754e","lat":41.992698989980475,"lng":-87.6605427275834,"venue":{"id":"4dfc110145ddebdfeaa9754e","name":"Lickity Split Frozen Custard & Sweets","url":"https:\/\/foursquare.com\/v\/lickity-split-frozen-custard--sweets\/4dfc110145ddebdfeaa9754e"}},{"id":"67282dfc4f17fa0c5a4d53f4","startTime":"2024-11-04 02:14:12.000000","endTime":"2024-11-04 04:38:33.000000","venueId":"40b28c80f964a520affb1ee3","lat":41.888256707494854,"lng":-87.62884953309768,"venue":{"id":"40b28c80f964a520affb1ee3","name":"House of Blues Restaurant & Bar","url":"https:\/\/foursquare.com\/v\/house-of-blues-restaurant--bar\/40b28c80f964a520affb1ee3"}},{"id":"6728212a507c24363e5672c6","startTime":"2024-11-04 01:19:37.000000","endTime":"2024-11-04 02:10:47.000000","venueId":"40db6b00f964a52077011fe3","lat":41.889664117959406,"lng":-87.62799665651848,"venue":{"id":"40db6b00f964a52077011fe3","name":"Rossi's Liquors","url":"https:\/\/foursquare.com\/v\/rossis-liquors\/40db6b00f964a52077011fe3"}},{"id":"67280015f2949804491fff26","startTime":"2024-11-03 22:58:12.000000","endTime":"2024-11-04 00:57:29.000000","venueId":"40b28c80f964a52054ff1ee3","lat":41.93736439833424,"lng":-87.6590594034307,"venue":{"id":"40b28c80f964a52054ff1ee3","name":"Will's Northwoods Inn","url":"https:\/\/foursquare.com\/v\/wills-northwoods-inn\/40b28c80f964a52054ff1ee3"}},{"id":"6727cbf183ac555f48eb356a","startTime":"2024-11-03 19:15:31.000000","endTime":"2024-11-03 21:38:40.000000","venueId":"4b801a9ef964a5208c5230e3","lat":42.13109714515973,"lng":-88.0844487433851,"venue":{"id":"4b801a9ef964a5208c5230e3","name":"Palatine Stables","url":"https:\/\/foursquare.com\/v\/palatine-stables\/4b801a9ef964a5208c5230e3"}},{"id":"6727c45b83ac555f48dd5a67","startTime":"2024-11-03 18:43:38.000000","endTime":"2024-11-03 18:47:45.000000","venueId":"51e16628498e64a96dcf9aee","lat":42.078293395118045,"lng":-87.86255452458524,"venue":{"id":"51e16628498e64a96dcf9aee","name":"ABT Appliance Repair Shop","url":"https:\/\/foursquare.com\/v\/abt-appliance-repair-shop\/51e16628498e64a96dcf9aee"}},{"id":"6727b9c0507c24363ec9cbf2","startTime":"2024-11-03 17:57:39.000000","endTime":"2024-11-03 18:01:21.000000","venueId":"4a96fa1af964a520cc2720e3","lat":41.97621478150347,"lng":-87.6683690031823,"venue":{"id":"4a96fa1af964a520cc2720e3","name":"Andersonville Wine and Spirits","url":"https:\/\/foursquare.com\/v\/andersonville-wine-and-spirits\/4a96fa1af964a520cc2720e3"}},{"id":"672790254f17fa0c5a620cb6","startTime":"2024-11-03 15:00:14.000000","endTime":"2024-11-03 15:05:40.000000","venueId":"4b0582cbf964a520ee5822e3","lat":41.98279645418425,"lng":-87.66925968697734,"venue":{"id":"4b0582cbf964a520ee5822e3","name":"Jewel-Osco","url":"https:\/\/foursquare.com\/v\/jewelosco\/4b0582cbf964a520ee5822e3"}},{"id":"6726ddcef29498044942bb96","startTime":"2024-11-03 00:25:19.000000","endTime":"2024-11-03 02:19:42.000000","venueId":"5407cffd498e848675970c41","lat":41.903366327263726,"lng":-87.6677089642206,"venue":{"id":"5407cffd498e848675970c41","name":"Bordel","url":"https:\/\/foursquare.com\/v\/bordel\/5407cffd498e848675970c41"}},{"id":"672694fe83ac555f48ff6f8f","startTime":"2024-11-02 21:08:35.000000","endTime":"2024-11-02 22:08:17.000000","venueId":"4a5a77a4f964a52062ba1fe3","lat":41.96341390599502,"lng":-87.95224025919848,"venue":{"id":"4a5a77a4f964a52062ba1fe3","name":"Chicago O'Hare International Airport (ORD)","url":"https:\/\/foursquare.com\/v\/chicago-ohare-international-airport\/4a5a77a4f964a52062ba1fe3"}},{"id":"67265a3f507c24363e87bfae","startTime":"2024-11-02 16:57:40.000000","endTime":"2024-11-02 20:49:12.000000","venueId":"4b785479f964a520e0c52ee3","lat":42.10622937901923,"lng":-88.01676715924685,"venue":{"id":"4b785479f964a520e0c52ee3","name":"Twin Lakes Rec Area & Golf Course","url":"https:\/\/foursquare.com\/v\/twin-lakes-rec-area--golf-course\/4b785479f964a520e0c52ee3"}},{"id":"672560eb83ac555f48f41a82","startTime":"2024-11-01 23:13:58.000000","endTime":"2024-11-01 23:19:42.000000","venueId":"55329fcf498ebe4679700014","lat":41.9914556522124,"lng":-87.65980588801531,"venue":{"id":"55329fcf498ebe4679700014","name":"Whole Foods Market","url":"https:\/\/foursquare.com\/v\/whole-foods-market\/55329fcf498ebe4679700014"}},{"id":"67255f0b83ac555f48f13643","startTime":"2024-11-01 22:55:29.000000","endTime":"2024-11-01 23:05:56.000000","venueId":"6425898ca044344b67a8693a","lat":41.981455388587854,"lng":-87.66490154737248,"venue":{"id":"6425898ca044344b67a8693a","name":"The Understudy","url":"https:\/\/foursquare.com\/v\/the-understudy\/6425898ca044344b67a8693a"}},{"id":"67255783f294980449cf8395","startTime":"2024-11-01 22:34:38.000000","endTime":"2024-11-01 22:50:33.000000","venueId":"4ae3cf7df964a520199921e3","lat":41.98206182661541,"lng":-87.66857580890844,"venue":{"id":"4ae3cf7df964a520199921e3","name":"Edgewater Produce","url":"https:\/\/foursquare.com\/v\/edgewater-produce\/4ae3cf7df964a520199921e3"}},{"id":"67242bc86203d52b55010e2f","startTime":"2024-11-01 01:15:35.000000","endTime":"2024-11-01 02:35:58.000000","venueId":"5a32f254a795bd118f395878","lat":41.97979429456218,"lng":-87.68059424732824,"venue":{"id":"5a32f254a795bd118f395878","name":"Spiteful Brewing","url":"https:\/\/foursquare.com\/v\/spiteful-brewing\/5a32f254a795bd118f395878"}},{"id":"67241572f5d0253f6040b2d1","startTime":"2024-10-31 23:39:59.000000","endTime":"2024-10-31 23:43:24.000000","venueId":"5d8181c5229a24000828f3fd","lat":41.97733001285924,"lng":-87.90570713013858,"venue":{"id":"5d8181c5229a24000828f3fd","name":"Rideshare Blue Zone B","url":"https:\/\/foursquare.com\/v\/rideshare-blue-zone-b\/5d8181c5229a24000828f3fd"}},{"id":"6724121dab022844d8de6a0e","startTime":"2024-10-31 23:25:36.000000","endTime":"2024-10-31 23:34:01.000000","venueId":"4c31caff7cc0c9b60141ef9a","lat":41.979214128177546,"lng":-87.90953960060692,"venue":{"id":"4c31caff7cc0c9b60141ef9a","name":"United Airlines Employee Cafeteria","url":"https:\/\/foursquare.com\/v\/united-airlines-employee-cafeteria\/4c31caff7cc0c9b60141ef9a"}},{"id":"67240f6bf5d0253f60366a81","startTime":"2024-10-31 23:14:34.000000","endTime":"2024-10-31 23:18:19.000000","venueId":"53a8ab45498e7f3380dec3cc","lat":41.97252820795769,"lng":-87.9167763149805,"venue":{"id":"53a8ab45498e7f3380dec3cc","name":"Taxiway N","url":"https:\/\/foursquare.com\/v\/taxiway-n\/53a8ab45498e7f3380dec3cc"}},{"id":"6723f0e96203d52b55a1414c","startTime":"2024-10-31 21:04:15.000000","endTime":"2024-10-31 21:13:20.000000","venueId":"4c34cdbfa0ced13a24cc186e","lat":38.85047486257769,"lng":-77.04049424713736,"venue":{"id":"4c34cdbfa0ced13a24cc186e","name":"Gate B11","url":"https:\/\/foursquare.com\/v\/gate-b11\/4c34cdbfa0ced13a24cc186e"}},{"id":"6723e134f5d0253f60e1c048","startTime":"2024-10-31 19:57:06.000000","endTime":"2024-10-31 21:02:55.000000","venueId":"4c2c7a3dae6820a11a581943","lat":38.850493566318335,"lng":-77.04133189436378,"venue":{"id":"4c2c7a3dae6820a11a581943","name":"Gate B12","url":"https:\/\/foursquare.com\/v\/gate-b12\/4c2c7a3dae6820a11a581943"}},{"id":"6723df1779dd254d519d3248","startTime":"2024-10-31 19:48:37.000000","endTime":"2024-10-31 19:51:38.000000","venueId":"531ca6cf498e6f4de2a9d900","lat":38.852119130187745,"lng":-77.04302381863096,"venue":{"id":"531ca6cf498e6f4de2a9d900","name":"TSA PreCheck (B Gates)","url":"https:\/\/foursquare.com\/v\/tsa-precheck-b-gates\/531ca6cf498e6f4de2a9d900"}},{"id":"6723d50cab022844d86e4ee1","startTime":"2024-10-31 19:05:03.000000","endTime":"2024-10-31 19:13:39.000000","venueId":"504a36c7e4b03e711eb2cc25","lat":38.924390340825035,"lng":-77.21049584450833,"venue":{"id":"504a36c7e4b03e711eb2cc25","name":"McLean Metro Station","url":"https:\/\/foursquare.com\/v\/mclean-metro-station\/504a36c7e4b03e711eb2cc25"}},{"id":"67238aa5ab022844d8c6e229","startTime":"2024-10-31 13:47:23.000000","endTime":"2024-10-31 19:02:34.000000","venueId":"4b7565f8f964a520500a2ee3","lat":38.92634552604647,"lng":-77.21251732331334,"venue":{"id":"4b7565f8f964a520500a2ee3","name":"Capital One Financial Corporation","url":"https:\/\/foursquare.com\/v\/capital-one-financial-corporation\/4b7565f8f964a520500a2ee3"}},{"id":"6722f02779dd254d51df5339","startTime":"2024-10-31 02:48:45.000000","endTime":"2024-10-31 13:38:21.000000","venueId":"5f6922c48c8ef640388dd967","lat":38.92607683857844,"lng":-77.21072651774598,"venue":{"id":"5f6922c48c8ef640388dd967","name":"Wegmans","url":"https:\/\/foursquare.com\/v\/wegmans\/5f6922c48c8ef640388dd967"}},{"id":"6722e356ab022844d8b82973","startTime":"2024-10-31 01:53:51.000000","endTime":"2024-10-31 02:11:47.000000","venueId":"4a9f0206f964a5202f3c20e3","lat":38.91440918279783,"lng":-77.02179681997568,"venue":{"id":"4a9f0206f964a5202f3c20e3","name":"Shaw-Howard University Metro Station","url":"https:\/\/foursquare.com\/v\/shawhoward-university-metro-station\/4a9f0206f964a5202f3c20e3"}},{"id":"6722e03079dd254d51d1a0f9","startTime":"2024-10-31 01:40:26.000000","endTime":"2024-10-31 01:50:40.000000","venueId":"4a3fa08ef964a520c8a31fe3","lat":38.92870460461755,"lng":-77.03291492304895,"venue":{"id":"4a3fa08ef964a520c8a31fe3","name":"Columbia Heights Metro Station","url":"https:\/\/foursquare.com\/v\/columbia-heights-metro-station\/4a3fa08ef964a520c8a31fe3"}},{"id":"6722cd8679dd254d51bf8213","startTime":"2024-10-31 00:21:10.000000","endTime":"2024-10-31 01:34:19.000000","venueId":"5508c4ac498ee1716001d28c","lat":38.93046595021289,"lng":-77.03787395952041,"venue":{"id":"5508c4ac498ee1716001d28c","name":"Purple Patch","url":"https:\/\/foursquare.com\/v\/purple-patch\/5508c4ac498ee1716001d28c"}},{"id":"672225712146b33b9a1701b0","startTime":"2024-10-30 12:23:40.000000","endTime":"2024-10-30 23:16:34.000000","venueId":"4b7565f8f964a520500a2ee3","lat":38.92621382936284,"lng":-77.21232612931199,"venue":{"id":"4b7565f8f964a520500a2ee3","name":"Capital One Financial Corporation","url":"https:\/\/foursquare.com\/v\/capital-one-financial-corporation\/4b7565f8f964a520500a2ee3"}},{"id":"672224808c767d49505468f5","startTime":"2024-10-30 12:19:51.000000","endTime":"2024-10-30 12:21:38.000000","venueId":"614a071739d7e62903ada886","lat":38.92567643546151,"lng":-77.21200098037292,"venue":{"id":"614a071739d7e62903ada886","name":"Capital One Hall","url":"https:\/\/foursquare.com\/v\/capital-one-hall\/614a071739d7e62903ada886"}},{"id":"67218209207f93220f6afbd4","startTime":"2024-10-30 00:45:58.000000","endTime":"2024-10-30 12:17:15.000000","venueId":"5f6922c48c8ef640388dd967","lat":38.92587647481112,"lng":-77.21055194477236,"venue":{"id":"5f6922c48c8ef640388dd967","name":"Wegmans","url":"https:\/\/foursquare.com\/v\/wegmans\/5f6922c48c8ef640388dd967"}},{"id":"67215460be9db14afcb6d23a","startTime":"2024-10-29 21:31:58.000000","endTime":"2024-10-30 00:28:36.000000","venueId":"55082353498e38ca7ea26171","lat":38.89017242648478,"lng":-77.08621249345441,"venue":{"id":"55082353498e38ca7ea26171","name":"Courthaus Social","url":"https:\/\/foursquare.com\/v\/courthaus-social\/55082353498e38ca7ea26171"}},{"id":"6720d935b9d28d18afc869c6","startTime":"2024-10-29 12:46:04.000000","endTime":"2024-10-29 20:55:39.000000","venueId":"4b7565f8f964a520500a2ee3","lat":38.92622145487173,"lng":-77.21234893751377,"venue":{"id":"4b7565f8f964a520500a2ee3","name":"Capital One Financial Corporation","url":"https:\/\/foursquare.com\/v\/capital-one-financial-corporation\/4b7565f8f964a520500a2ee3"}},{"id":"67201f8c71639057ae0fc72b","startTime":"2024-10-28 23:33:49.000000","endTime":"2024-10-29 12:37:33.000000","venueId":"5f6922c48c8ef640388dd967","lat":38.926072054804095,"lng":-77.21032206072246,"venue":{"id":"5f6922c48c8ef640388dd967","name":"Wegmans","url":"https:\/\/foursquare.com\/v\/wegmans\/5f6922c48c8ef640388dd967"}},{"id":"67201e9b71639057ae0eab0e","startTime":"2024-10-28 23:30:03.000000","endTime":"2024-10-28 23:30:48.000000","venueId":"615f9b8b45cc436400721df6","lat":38.92578627033018,"lng":-77.21086683387648,"venue":{"id":"615f9b8b45cc436400721df6","name":"Wren Tysons","url":"https:\/\/foursquare.com\/v\/wren-tysons\/615f9b8b45cc436400721df6"}},{"id":"671fec37bebcbb0d62e525fb","startTime":"2024-10-28 19:54:45.000000","endTime":"2024-10-28 21:00:46.000000","venueId":"516ae307e4b013b766a711a4","lat":41.978554734648064,"lng":-87.90655036916993,"venue":{"id":"516ae307e4b013b766a711a4","name":"TSA Precheck Terminal 1","url":"https:\/\/foursquare.com\/v\/tsa-precheck-terminal-1\/516ae307e4b013b766a711a4"}},{"id":"671fddeb5083b80bd9bc38bd","startTime":"2024-10-28 18:54:13.000000","endTime":"2024-10-28 18:58:49.000000","venueId":"5d75675ad153b00008821f12","lat":41.97833052915537,"lng":-87.66822950190038,"venue":{"id":"5d75675ad153b00008821f12","name":"Enjoy, An Urban General Store - Andersonville","url":"https:\/\/foursquare.com\/v\/enjoy-an-urban-general-store--andersonville\/5d75675ad153b00008821f12"}},{"id":"671eadc3cc80fa781a2b356e","startTime":"2024-10-27 21:16:06.000000","endTime":"2024-10-28 00:13:27.000000","venueId":"5a32f254a795bd118f395878","lat":41.97975122663844,"lng":-87.6806324606466,"venue":{"id":"5a32f254a795bd118f395878","name":"Spiteful Brewing","url":"https:\/\/foursquare.com\/v\/spiteful-brewing\/5a32f254a795bd118f395878"}},{"id":"671e8d338abbef25151317e6","startTime":"2024-10-27 18:56:56.000000","endTime":"2024-10-27 19:00:17.000000","venueId":"4d8bc074761e224b141ac329","lat":41.943981746680834,"lng":-87.65406436280848,"venue":{"id":"4d8bc074761e224b141ac329","name":"Al's #1 Italian Beef","url":"https:\/\/foursquare.com\/v\/als-1-italian-beef\/4d8bc074761e224b141ac329"}},{"id":"671e719c9dce3c6b66145739","startTime":"2024-10-27 16:59:58.000000","endTime":"2024-10-27 18:32:41.000000","venueId":"4b15b142f964a520a3b223e3","lat":41.86931471718337,"lng":-87.6272829767462,"venue":{"id":"4b15b142f964a520a3b223e3","name":"Kriser's Natural Pet","url":"https:\/\/foursquare.com\/v\/krisers-natural-pet\/4b15b142f964a520a3b223e3"}},{"id":"671d729bcc80fa781a28ba52","startTime":"2024-10-26 22:51:11.000000","endTime":"2024-10-27 02:00:15.000000","venueId":"59bc98f62bf9a9618c81db96","lat":41.98009398813973,"lng":-87.68177357980029,"venue":{"id":"59bc98f62bf9a9618c81db96","name":"Half Acre Beer Co Balmoral Tap Room & Garden","url":"https:\/\/foursquare.com\/v\/half-acre-beer-co-balmoral-tap-room--garden\/59bc98f62bf9a9618c81db96"}},{"id":"671d623ff6d17331d295f582","startTime":"2024-10-26 21:41:24.000000","endTime":"2024-10-26 21:45:58.000000","venueId":"4a96fa1af964a520cc2720e3","lat":41.9762019033506,"lng":-87.66823879447479,"venue":{"id":"4a96fa1af964a520cc2720e3","name":"Andersonville Wine and Spirits","url":"https:\/\/foursquare.com\/v\/andersonville-wine-and-spirits\/4a96fa1af964a520cc2720e3"}},{"id":"671d5aaaf6d17331d289a7ae","startTime":"2024-10-26 21:09:03.000000","endTime":"2024-10-26 21:29:25.000000","venueId":"5dfc062b9ffbda0008f68252","lat":41.97976979207958,"lng":-87.6595506517183,"venue":{"id":"5dfc062b9ffbda0008f68252","name":"Talard Thai Asian Market","url":"https:\/\/foursquare.com\/v\/talard-thai-asian-market\/5dfc062b9ffbda0008f68252"}},{"id":"671d3d1fcc80fa781ad33f99","startTime":"2024-10-26 19:03:25.000000","endTime":"2024-10-26 19:21:59.000000","venueId":"4d41a3378e0e88bfc1a217cd","lat":41.97787711910502,"lng":-87.66854210005295,"venue":{"id":"4d41a3378e0e88bfc1a217cd","name":"Lady Gregory's","url":"https:\/\/foursquare.com\/v\/lady-gregorys\/4d41a3378e0e88bfc1a217cd"}},{"id":"671d0c599dce3c6b66baf8ed","startTime":"2024-10-26 15:35:05.000000","endTime":"2024-10-26 16:05:36.000000","venueId":"6691581f455bad244f01fccf","lat":41.966876568880345,"lng":-87.65854910919901,"venue":{"id":"6691581f455bad244f01fccf","name":"Nabala Cafe","url":"https:\/\/foursquare.com\/v\/nabala-cafe\/6691581f455bad244f01fccf"}},{"id":"671d02688abbef2515689967","startTime":"2024-10-26 14:52:46.000000","endTime":"2024-10-26 15:25:08.000000","venueId":"4adcc0d9f964a5206f2f21e3","lat":41.96365000474445,"lng":-87.63396807726488,"venue":{"id":"4adcc0d9f964a5206f2f21e3","name":"Montrose Point Bird Sanctuary","url":"https:\/\/foursquare.com\/v\/montrose-point-bird-sanctuary\/4adcc0d9f964a5206f2f21e3"}},{"id":"671cfe688abbef25155eb1ec","startTime":"2024-10-26 14:36:12.000000","endTime":"2024-10-26 14:43:32.000000","venueId":"4c70512ad274b60cc460d90d","lat":41.96471813617893,"lng":-87.6338864142859,"venue":{"id":"4c70512ad274b60cc460d90d","name":"Montrose Dunes Nature Preserve","url":"https:\/\/foursquare.com\/v\/montrose-dunes-nature-preserve\/4c70512ad274b60cc460d90d"}},{"id":"671cf820f6d17331d2b5e028","startTime":"2024-10-26 14:08:59.000000","endTime":"2024-10-26 14:34:07.000000","venueId":"4adcc0d9f964a5206f2f21e3","lat":41.96342847650503,"lng":-87.63402090022058,"venue":{"id":"4adcc0d9f964a5206f2f21e3","name":"Montrose Point Bird Sanctuary","url":"https:\/\/foursquare.com\/v\/montrose-point-bird-sanctuary\/4adcc0d9f964a5206f2f21e3"}},{"id":"671c2bebcc80fa781af85284","startTime":"2024-10-25 23:37:52.000000","endTime":"2024-10-26 13:50:42.000000","venueId":"4b0582cbf964a520ee5822e3","lat":41.98274476264069,"lng":-87.66931773600741,"venue":{"id":"4b0582cbf964a520ee5822e3","name":"Jewel-Osco","url":"https:\/\/foursquare.com\/v\/jewelosco\/4b0582cbf964a520ee5822e3"}},{"id":"671c24fa9dce3c6b6644c900","startTime":"2024-10-25 23:08:24.000000","endTime":"2024-10-25 23:29:49.000000","venueId":"55329fcf498ebe4679700014","lat":41.99144785426683,"lng":-87.65988325259036,"venue":{"id":"55329fcf498ebe4679700014","name":"Whole Foods Market","url":"https:\/\/foursquare.com\/v\/whole-foods-market\/55329fcf498ebe4679700014"}},{"id":"671be094bc59cc5d9e9d8f2a","startTime":"2024-10-25 18:16:05.000000","endTime":"2024-10-25 18:17:56.000000","venueId":"4a96fa5ff964a520cd2720e3","lat":41.97617033498534,"lng":-87.6685854776269,"venue":{"id":"4a96fa5ff964a520cd2720e3","name":"Middle East Bakery & Grocery & Caf√©","url":"https:\/\/foursquare.com\/v\/middle-east-bakery--grocery--caf%C3%A9\/4a96fa5ff964a520cd2720e3"}},{"id":"67197553d3e5f42e8464ac2c","startTime":"2024-10-23 22:13:50.000000","endTime":"2024-10-23 22:35:12.000000","venueId":"4c8e5e0e1992a1cd0730ddfb","lat":41.981622537358945,"lng":-87.66956780120387,"venue":{"id":"4c8e5e0e1992a1cd0730ddfb","name":"Fifth Third Bank & ATM","url":"https:\/\/foursquare.com\/v\/fifth-third-bank--atm\/4c8e5e0e1992a1cd0730ddfb"}},{"id":"6716ef9b089a7c0901fd6cc9","startTime":"2024-10-22 00:18:39.000000","endTime":"2024-10-22 02:33:19.000000","venueId":"412a8500f964a520770c1fe3","lat":41.975860929556255,"lng":-87.66859525920768,"venue":{"id":"412a8500f964a520770c1fe3","name":"Hopleaf Bar","url":"https:\/\/foursquare.com\/v\/hopleaf-bar\/412a8500f964a520770c1fe3"}},{"id":"6716cfe25ce57371324569cb","startTime":"2024-10-21 22:04:17.000000","endTime":"2024-10-21 22:44:48.000000","venueId":"4ada2ba7f964a520761f21e3","lat":41.98717476272309,"lng":-87.66024414756752,"venue":{"id":"4ada2ba7f964a520761f21e3","name":"Father & Son Barber Shop","url":"https:\/\/foursquare.com\/v\/father--son-barber-shop\/4ada2ba7f964a520761f21e3"}},{"id":"6716cccd82c7ad2691de3bbd","startTime":"2024-10-21 21:51:08.000000","endTime":"2024-10-21 21:54:03.000000","venueId":"50e27738e4b0a2f21d2e61c4","lat":41.983896016780044,"lng":-87.65454629427622,"venue":{"id":"50e27738e4b0a2f21d2e61c4","name":"The Statesman","url":"https:\/\/foursquare.com\/v\/the-statesman\/50e27738e4b0a2f21d2e61c4"}},{"id":"67159a0e2b74514882f5df9b","startTime":"2024-10-20 19:00:36.000000","endTime":"2024-10-21 00:01:22.000000","venueId":"40b28c80f964a52054ff1ee3","lat":41.97957551797129,"lng":-87.6661824181966,"venue":{"id":"40b28c80f964a52054ff1ee3","name":"Will's Northwoods Inn","url":"https:\/\/foursquare.com\/v\/wills-northwoods-inn\/40b28c80f964a52054ff1ee3"}},{"id":"67154a2b2b7451488285fb20","startTime":"2024-10-20 18:20:45.000000","endTime":"2024-10-20 18:26:51.000000","venueId":"4b6cfef5f964a52026622ce3","lat":41.857691456953354,"lng":-87.6576531735962,"venue":{"id":"4b6cfef5f964a52026622ce3","name":"Thalia Hall","url":"https:\/\/foursquare.com\/v\/thalia-hall\/4b6cfef5f964a52026622ce3"}},{"id":"6715432a56306b3552fb8b25","startTime":"2024-10-20 17:51:25.000000","endTime":"2024-10-20 18:18:58.000000","venueId":"4b9703adf964a5207bf334e3","lat":41.85522453057407,"lng":-87.67373816115136,"venue":{"id":"4b9703adf964a5207bf334e3","name":"Harrison Park","url":"https:\/\/foursquare.com\/v\/harrison-park\/4b9703adf964a5207bf334e3"}},{"id":"67153e58ea2f560936a5a981","startTime":"2024-10-20 17:30:11.000000","endTime":"2024-10-20 17:32:16.000000","venueId":"4b58909cf964a520585e28e3","lat":41.83788947386994,"lng":-87.6451183900701,"venue":{"id":"4b58909cf964a520585e28e3","name":"CVS pharmacy","url":"https:\/\/foursquare.com\/v\/cvs-pharmacy\/4b58909cf964a520585e28e3"}},{"id":"671537e4394c0a1d147ae174","startTime":"2024-10-20 17:02:47.000000","endTime":"2024-10-20 17:19:06.000000","venueId":"4b5c74bcf964a520bd3029e3","lat":41.836054307470896,"lng":-87.65239306812627,"venue":{"id":"4b5c74bcf964a520bd3029e3","name":"St. Mary of Perpetual Help Parish","url":"https:\/\/foursquare.com\/v\/st-mary-of-perpetual-help-parish\/4b5c74bcf964a520bd3029e3"}},{"id":"67152bd9394c0a1d1462c246","startTime":"2024-10-20 16:11:51.000000","endTime":"2024-10-20 16:46:40.000000","venueId":"60b26e401588492ff0a88b1c","lat":41.82713059877791,"lng":-87.65292281295976,"venue":{"id":"60b26e401588492ff0a88b1c","name":"Chicago Tool Library","url":"https:\/\/foursquare.com\/v\/chicago-tool-library\/60b26e401588492ff0a88b1c"}},{"id":"671525d756306b3552c1bad1","startTime":"2024-10-20 15:45:46.000000","endTime":"2024-10-20 15:58:49.000000","venueId":"4daf4a77fc60997ee92a6392","lat":41.83015934692667,"lng":-87.64635656848824,"venue":{"id":"4daf4a77fc60997ee92a6392","name":"Ramova Theater","url":"https:\/\/foursquare.com\/v\/ramova-theater\/4daf4a77fc60997ee92a6392"}},{"id":"671523f8ea2f560936713c94","startTime":"2024-10-20 14:46:19.000000","endTime":"2024-10-20 15:38:20.000000","venueId":"505cf881e4b012e2dbdf10f1","lat":41.833202128942325,"lng":-87.64501721139793,"venue":{"id":"505cf881e4b012e2dbdf10f1","name":"Jackalope Coffee & Tea","url":"https:\/\/foursquare.com\/v\/jackalope-coffee--tea\/505cf881e4b012e2dbdf10f1"}},{"id":"67151009ea2f5609364851ca","startTime":"2024-10-20 14:13:15.000000","endTime":"2024-10-20 14:19:37.000000","venueId":"5f114ada9e5df36494eb979e","lat":41.96908997905328,"lng":-87.65604903273257,"venue":{"id":"5f114ada9e5df36494eb979e","name":"The Lawrence House","url":"https:\/\/foursquare.com\/v\/the-lawrence-house\/5f114ada9e5df36494eb979e"}},{"id":"67143386ea2f5609360b650d","startTime":"2024-10-19 22:32:32.000000","endTime":"2024-10-20 05:48:50.000000","venueId":"5f20995f2835f147a281af94","lat":42.09733787700331,"lng":-87.7916152054412,"venue":{"id":"5f20995f2835f147a281af94","name":"Synergy Integrative Headache Center: Alexander Feoktistov","url":"https:\/\/foursquare.com\/v\/synergy-integrative-headache-center-alexander-feoktistov\/5f20995f2835f147a281af94"}},{"id":"67141457ea2f560936dc07e0","startTime":"2024-10-19 20:18:43.000000","endTime":"2024-10-19 20:35:11.000000","venueId":"6298d4802124774672ad84d4","lat":41.937377925079765,"lng":-87.6329321250587,"venue":{"id":"6298d4802124774672ad84d4","name":"AIDS Garden Chicago","url":"https:\/\/foursquare.com\/v\/aids-garden-chicago\/6298d4802124774672ad84d4"}},{"id":"6714089b56306b35521415ba","startTime":"2024-10-19 19:29:14.000000","endTime":"2024-10-19 20:13:46.000000","venueId":"517c07efe4b0fb64904b07ab","lat":41.93662122671083,"lng":-87.63215598323428,"venue":{"id":"517c07efe4b0fb64904b07ab","name":"Lake Michigan Lakeview","url":"https:\/\/foursquare.com\/v\/lake-michigan-lakeview\/517c07efe4b0fb64904b07ab"}},{"id":"6713fd402b745148827b007f","startTime":"2024-10-19 18:41:02.000000","endTime":"2024-10-19 18:45:31.000000","venueId":"5cef06ada795bd002c4c15ed","lat":41.91719635490872,"lng":-87.7210353043244,"venue":{"id":"5cef06ada795bd002c4c15ed","name":"Xurro - Churro Factory","url":"https:\/\/foursquare.com\/v\/xurro--churro-factory\/5cef06ada795bd002c4c15ed"}},{"id":"6713c7b52b74514882002cfc","startTime":"2024-10-19 14:52:06.000000","endTime":"2024-10-19 18:38:40.000000","venueId":"5155d630e4b0e990ed93d463","lat":41.91717524396782,"lng":-87.72805750629975,"venue":{"id":"5155d630e4b0e990ed93d463","name":"Segundo Ruiz Belvis Cultural Center","url":"https:\/\/foursquare.com\/v\/segundo-ruiz-belvis-cultural-center\/5155d630e4b0e990ed93d463"}},{"id":"67132589394c0a1d14171919","startTime":"2024-10-19 03:20:14.000000","endTime":"2024-10-19 04:53:29.000000","venueId":"40b28c80f964a5204bff1ee3","lat":41.9416228805785,"lng":-87.654464178873,"venue":{"id":"40b28c80f964a5204bff1ee3","name":"Sheffield's Beer & Wine Garden","url":"https:\/\/foursquare.com\/v\/sheffields-beer--wine-garden\/40b28c80f964a5204bff1ee3"}},{"id":"67130a612b74514882e00aa5","startTime":"2024-10-19 01:24:39.000000","endTime":"2024-10-19 03:19:06.000000","venueId":"417c4200f964a520ca1d1fe3","lat":41.93951488216954,"lng":-87.65409360399298,"venue":{"id":"417c4200f964a520ca1d1fe3","name":"The Vic Theatre","url":"https:\/\/foursquare.com\/v\/the-vic-theatre\/417c4200f964a520ca1d1fe3"}},{"id":"6713054f394c0a1d14f172da","startTime":"2024-10-19 01:03:02.000000","endTime":"2024-10-19 01:22:16.000000","venueId":"49ea526ff964a52051661fe3","lat":41.93555447575144,"lng":-87.65408841057935,"venue":{"id":"49ea526ff964a52051661fe3","name":"Kirkwood Bar & Grill","url":"https:\/\/foursquare.com\/v\/kirkwood-bar--grill\/49ea526ff964a52051661fe3"}},{"id":"67119a7dc91c0633e7f4c9bf","startTime":"2024-10-17 23:14:41.000000","endTime":"2024-10-17 23:19:09.000000","venueId":"4ae3cf7df964a520199921e3","lat":41.98219812310749,"lng":-87.66239737930744,"venue":{"id":"4ae3cf7df964a520199921e3","name":"Edgewater Produce","url":"https:\/\/foursquare.com\/v\/edgewater-produce\/4ae3cf7df964a520199921e3"}},{"id":"67110ba319125170dfd4af94","startTime":"2024-10-17 13:05:14.000000","endTime":"2024-10-17 13:09:39.000000","venueId":"42b75880f964a52090251fe3","lat":41.88322297133974,"lng":-87.6230028859819,"venue":{"id":"42b75880f964a52090251fe3","name":"Millennium Park","url":"https:\/\/foursquare.com\/v\/millennium-park\/42b75880f964a52090251fe3"}},{"id":"670fafe49f48527e25455cb0","startTime":"2024-10-16 00:30:33.000000","endTime":"2024-10-16 12:21:55.000000","venueId":"6425898ca044344b67a8693a","lat":41.979957657877215,"lng":-87.66236818107409,"venue":{"id":"6425898ca044344b67a8693a","name":"The Understudy","url":"https:\/\/foursquare.com\/v\/the-understudy\/6425898ca044344b67a8693a"}},{"id":"670e9aff3e770801f2d59ab6","startTime":"2024-10-15 16:40:30.000000","endTime":"2024-10-15 17:09:04.000000","venueId":"61b504d7f7d0dc50aa09fc6e","lat":41.88327082324491,"lng":-87.6286278996815,"venue":{"id":"61b504d7f7d0dc50aa09fc6e","name":"Stan's Donuts","url":"https:\/\/foursquare.com\/v\/stans-donuts\/61b504d7f7d0dc50aa09fc6e"}},{"id":"670d7d5abb7d1959204f6eda","startTime":"2024-10-14 20:21:38.000000","endTime":"2024-10-14 20:30:09.000000","venueId":"4a96fa5ff964a520cd2720e3","lat":41.976230681145665,"lng":-87.66892294095054,"venue":{"id":"4a96fa5ff964a520cd2720e3","name":"Middle East Bakery & Grocery & Caf√©","url":"https:\/\/foursquare.com\/v\/middle-east-bakery--grocery--caf%C3%A9\/4a96fa5ff964a520cd2720e3"}},{"id":"670d6f8f93479c61bed9924c","startTime":"2024-10-14 19:22:52.000000","endTime":"2024-10-14 19:27:25.000000","venueId":"4b76f7a4f964a520886f2ee3","lat":41.97151259972364,"lng":-87.66075464859595,"venue":{"id":"4b76f7a4f964a520886f2ee3","name":"Chicago Public Library","url":"https:\/\/foursquare.com\/v\/chicago-public-library\/4b76f7a4f964a520886f2ee3"}},{"id":"670d6c15b8930d3ca51894f1","startTime":"2024-10-14 19:07:29.000000","endTime":"2024-10-14 19:15:57.000000","venueId":"55171522498e4f5e1106c9e4","lat":41.976742955777624,"lng":-87.66006639087396,"venue":{"id":"55171522498e4f5e1106c9e4","name":"PetSmart","url":"https:\/\/foursquare.com\/v\/petsmart\/55171522498e4f5e1106c9e4"}},{"id":"670d2c3edde32e174d2b8cc4","startTime":"2024-10-14 14:34:54.000000","endTime":"2024-10-14 14:43:51.000000","venueId":"55171522498e4f5e1106c9e4","lat":41.976879071944936,"lng":-87.6601048095576,"venue":{"id":"55171522498e4f5e1106c9e4","name":"PetSmart","url":"https:\/\/foursquare.com\/v\/petsmart\/55171522498e4f5e1106c9e4"}},{"id":"670c4ed849cd2c178dae3de6","startTime":"2024-10-13 22:50:56.000000","endTime":"2024-10-13 23:10:58.000000","venueId":"5aa41fe767f62b134b179b22","lat":41.98471199772316,"lng":-87.65212262341468,"venue":{"id":"5aa41fe767f62b134b179b22","name":"Edgewater Dog Park","url":"https:\/\/foursquare.com\/v\/edgewater-dog-park\/5aa41fe767f62b134b179b22"}},{"id":"670c3a49dde32e174dcbafaa","startTime":"2024-10-13 20:21:26.000000","endTime":"2024-10-13 21:22:41.000000","venueId":"6425898ca044344b67a8693a","lat":41.979976744874605,"lng":-87.66233480626639,"venue":{"id":"6425898ca044344b67a8693a","name":"The Understudy","url":"https:\/\/foursquare.com\/v\/the-understudy\/6425898ca044344b67a8693a"}},{"id":"670c1f62f095967b77edbf15","startTime":"2024-10-13 19:28:33.000000","endTime":"2024-10-13 21:22:41.000000","venueId":"4a5a77a4f964a52062ba1fe3","lat":41.97652095663108,"lng":-87.90431787677034,"venue":{"id":"4a5a77a4f964a52062ba1fe3","name":"Chicago O'Hare International Airport (ORD)","url":"https:\/\/foursquare.com\/v\/chicago-ohare-international-airport\/4a5a77a4f964a52062ba1fe3"}},{"id":"670c144a53f9704fc8b831ab","startTime":"2024-10-13 18:40:59.000000","endTime":"2024-10-13 19:20:32.000000","venueId":"4b773c7bf964a520778a2ee3","lat":41.97443229413011,"lng":-87.89006488322579,"venue":{"id":"4b773c7bf964a520778a2ee3","name":"British Airways Terraces Lounge","url":"https:\/\/foursquare.com\/v\/british-airways-terraces-lounge\/4b773c7bf964a520778a2ee3"}},{"id":"670b7ff253f9704fc89be6e9","startTime":"2024-10-13 08:07:36.000000","endTime":"2024-10-13 18:40:59.000000","venueId":"4b05889af964a520e5cf22e3","lat":48.11740835628219,"lng":16.570001660090846,"venue":{"id":"4b05889af964a520e5cf22e3","name":"Vienna International Airport (VIE) (Flughafen Wien-Schwechat)","url":"https:\/\/foursquare.com\/v\/vienna-international-airport-vie\/4b05889af964a520e5cf22e3"}},{"id":"670b7b6549cd2c178d35fb8d","startTime":"2024-10-13 07:48:33.000000","endTime":"2024-10-13 07:59:13.000000","venueId":"4fdffb90e4b06fe13dd97a66","lat":48.11845550627575,"lng":16.566494021487888,"venue":{"id":"4fdffb90e4b06fe13dd97a66","name":"Gate F05","url":"https:\/\/foursquare.com\/v\/gate-f05\/4fdffb90e4b06fe13dd97a66"}},{"id":"670b7886f095967b77b1f316","startTime":"2024-10-13 07:35:51.000000","endTime":"2024-10-13 07:45:47.000000","venueId":"4fd9f8bde4b0283349faeaae","lat":48.11815243776699,"lng":16.56810831899404,"venue":{"id":"4fd9f8bde4b0283349faeaae","name":"Gate F20","url":"https:\/\/foursquare.com\/v\/gate-f20\/4fd9f8bde4b0283349faeaae"}},{"id":"670b70e6dde32e174d5be4a1","startTime":"2024-10-13 07:04:00.000000","endTime":"2024-10-13 07:29:35.000000","venueId":"5027b782e4b063baa1637641","lat":48.11940707651191,"lng":16.563696937330914,"venue":{"id":"5027b782e4b063baa1637641","name":"Security Checkpoint F\/G","url":"https:\/\/foursquare.com\/v\/security-checkpoint-fg\/5027b782e4b063baa1637641"}},{"id":"670b6bbd49cd2c178d1e2be0","startTime":"2024-10-13 06:41:58.000000","endTime":"2024-10-13 07:03:03.000000","venueId":"4b05889af964a520e5cf22e3","lat":48.119762473918826,"lng":16.563078799337447,"venue":{"id":"4b05889af964a520e5cf22e3","name":"Vienna International Airport (VIE) (Flughafen Wien-Schwechat)","url":"https:\/\/foursquare.com\/v\/vienna-international-airport-vie\/4b05889af964a520e5cf22e3"}},{"id":"670b06fbdde32e174ddca835","startTime":"2024-10-12 23:32:07.000000","endTime":"2024-10-13 06:20:04.000000","venueId":"5fd85d36e7f86f465e715e8c","lat":48.19854872172328,"lng":16.3507520220153,"venue":{"id":"5fd85d36e7f86f465e715e8c","name":"Motto Brot","url":"https:\/\/foursquare.com\/v\/motto-brot\/5fd85d36e7f86f465e715e8c"}},{"id":"670ad08049cd2c178d543755","startTime":"2024-10-12 19:39:41.000000","endTime":"2024-10-12 23:26:10.000000","venueId":"5c2b6ed278782c002c1214e5","lat":48.199081194272004,"lng":16.35643189940788,"venue":{"id":"5c2b6ed278782c002c1214e5","name":"Bruder - K√ºche & Bar","url":"https:\/\/foursquare.com\/v\/bruder--k%C3%BCche--bar\/5c2b6ed278782c002c1214e5"}},{"id":"670ac447f095967b77bc6bec","startTime":"2024-10-12 18:47:30.000000","endTime":"2024-10-12 19:33:42.000000","venueId":"4b29271cf964a520d69924e3","lat":48.19813933532035,"lng":16.350517226706664,"venue":{"id":"4b29271cf964a520d69924e3","name":"Caf√© Ritter","url":"https:\/\/foursquare.com\/v\/caf%C3%A9-ritter\/4b29271cf964a520d69924e3"}},{"id":"670abfb2f095967b77b2b49d","startTime":"2024-10-12 18:27:02.000000","endTime":"2024-10-12 18:45:31.000000","venueId":"4b4e09a6f964a5202ddf26e3","lat":48.186046182191205,"lng":16.374359315374186,"venue":{"id":"4b4e09a6f964a5202ddf26e3","name":"U S√ºdtiroler Platz - Hauptbahnhof","url":"https:\/\/foursquare.com\/v\/u-s%C3%BCdtiroler-platz--hauptbahnhof\/4b4e09a6f964a5202ddf26e3"}},{"id":"670a976e53f9704fc832768c","startTime":"2024-10-12 15:35:14.000000","endTime":"2024-10-12 15:48:31.000000","venueId":"4b6e7d14f964a52065bf2ce3","lat":47.500596167767874,"lng":19.084756975001426,"venue":{"id":"4b6e7d14f964a52065bf2ce3","name":"Eastern Railway Station (Keleti p√°lyaudvar)","url":"https:\/\/foursquare.com\/v\/keleti-p%C3%A1lyaudvar\/4b6e7d14f964a52065bf2ce3"}},{"id":"670a93caf095967b774be5ad","startTime":"2024-10-12 15:19:45.000000","endTime":"2024-10-12 15:28:12.000000","venueId":"4c687ba67963be9a44b6cdbc","lat":47.494353416868755,"lng":19.06014115721442,"venue":{"id":"4c687ba67963be9a44b6cdbc","name":"Astoria (M2)","url":"https:\/\/foursquare.com\/v\/astoria-m2\/4c687ba67963be9a44b6cdbc"}},{"id":"670a890ddde32e174de69f42","startTime":"2024-10-12 14:34:51.000000","endTime":"2024-10-12 15:12:41.000000","venueId":"4b630e1af964a52020602ae3","lat":47.497034610159496,"lng":19.063325912377802,"venue":{"id":"4b630e1af964a52020602ae3","name":"Szimpla Kert","url":"https:\/\/foursquare.com\/v\/szimpla-kert\/4b630e1af964a52020602ae3"}},{"id":"670a6d7853f9704fc8d25272","startTime":"2024-10-12 12:37:08.000000","endTime":"2024-10-12 14:25:51.000000","venueId":"4b6e7d14f964a52065bf2ce3","lat":47.50042546556411,"lng":19.082949983329744,"venue":{"id":"4b6e7d14f964a52065bf2ce3","name":"Eastern Railway Station (Keleti p√°lyaudvar)","url":"https:\/\/foursquare.com\/v\/keleti-p%C3%A1lyaudvar\/4b6e7d14f964a52065bf2ce3"}},{"id":"670a68c249cd2c178d6a61e2","startTime":"2024-10-12 12:17:05.000000","endTime":"2024-10-12 12:32:53.000000","venueId":"4bc34cf2461576b0856a7e32","lat":47.50572902053347,"lng":19.0468610652842,"venue":{"id":"4bc34cf2461576b0856a7e32","name":"Kossuth Lajos t√©r (M2)","url":"https:\/\/foursquare.com\/v\/kossuth-lajos-t%C3%A9r-m2\/4bc34cf2461576b0856a7e32"}},{"id":"670a642fdde32e174d9764e2","startTime":"2024-10-12 11:57:34.000000","endTime":"2024-10-12 12:14:05.000000","venueId":"55c73456498e332a1d857d3d","lat":47.508684469237984,"lng":19.047352941193665,"venue":{"id":"55c73456498e332a1d857d3d","name":"Elys√©e Bistro&K√°v√©h√°z","url":"https:\/\/foursquare.com\/v\/elys%C3%A9e-bistrok%C3%A1v%C3%A9h%C3%A1z\/55c73456498e332a1d857d3d"}},{"id":"670a3fbef095967b77a1d520","startTime":"2024-10-12 09:21:55.000000","endTime":"2024-10-12 11:42:34.000000","venueId":"57814753498e51523c7c3788","lat":47.51827614116287,"lng":19.082273468576787,"venue":{"id":"57814753498e51523c7c3788","name":"Thermal Beer Spa Budapest","url":"https:\/\/foursquare.com\/v\/thermal-beer-spa-budapest\/57814753498e51523c7c3788"}},{"id":"670a3bb753f9704fc8793786","startTime":"2024-10-12 09:04:51.000000","endTime":"2024-10-12 09:13:00.000000","venueId":"5e3f39875c9aa700074866f5","lat":47.51895695069136,"lng":19.081550798877483,"venue":{"id":"5e3f39875c9aa700074866f5","name":"Sparty","url":"https:\/\/foursquare.com\/v\/sparty\/5e3f39875c9aa700074866f5"}},{"id":"6709a22053f9704fc8aecf06","startTime":"2024-10-11 22:09:31.000000","endTime":"2024-10-12 08:50:53.000000","venueId":"55c73456498e332a1d857d3d","lat":47.508693694166,"lng":19.047358882891828,"venue":{"id":"55c73456498e332a1d857d3d","name":"Elys√©e Bistro&K√°v√©h√°z","url":"https:\/\/foursquare.com\/v\/elys%C3%A9e-bistrok%C3%A1v%C3%A9h%C3%A1z\/55c73456498e332a1d857d3d"}},{"id":"670969ceb32f192c6c001895","startTime":"2024-10-11 18:09:03.000000","endTime":"2024-10-11 21:51:36.000000","venueId":"5d872c58029a4a0007eee4ca","lat":47.49699305754578,"lng":19.05080623655321,"venue":{"id":"5d872c58029a4a0007eee4ca","name":"MARTYS Kitchen & Bar","url":"https:\/\/foursquare.com\/v\/martys-kitchen--bar\/5d872c58029a4a0007eee4ca"}},{"id":"670954d7b32f192c6ccf6f72","startTime":"2024-10-11 16:39:47.000000","endTime":"2024-10-11 17:57:06.000000","venueId":"55c73456498e332a1d857d3d","lat":47.50869380689828,"lng":19.04735890445088,"venue":{"id":"55c73456498e332a1d857d3d","name":"Elys√©e Bistro&K√°v√©h√°z","url":"https:\/\/foursquare.com\/v\/elys%C3%A9e-bistrok%C3%A1v%C3%A9h%C3%A1z\/55c73456498e332a1d857d3d"}},{"id":"670947b6b32f192c6caf6a45","startTime":"2024-10-11 15:43:49.000000","endTime":"2024-10-11 16:30:46.000000","venueId":"4b28fb5ff964a520ea9624e3","lat":47.49842411352678,"lng":19.0394817409215,"venue":{"id":"4b28fb5ff964a520ea9624e3","name":"Clark √Åd√°m t√©r","url":"https:\/\/foursquare.com\/v\/clark-%C3%A1d%C3%A1m-t%C3%A9r\/4b28fb5ff964a520ea9624e3"}},{"id":"6709443e8c1ead186a33ce08","startTime":"2024-10-11 15:29:01.000000","endTime":"2024-10-11 15:40:48.000000","venueId":"4bc9f998937ca59338c2a692","lat":47.49591334087798,"lng":19.039031388028466,"venue":{"id":"4bc9f998937ca59338c2a692","name":"Buda Castle (Budav√°ri Palota)","url":"https:\/\/foursquare.com\/v\/budav%C3%A1ri-palota\/4bc9f998937ca59338c2a692"}},{"id":"67093fe0082c59071617252c","startTime":"2024-10-11 15:10:21.000000","endTime":"2024-10-11 15:15:58.000000","venueId":"4fe9cadfe4b0acc4d94052a4","lat":47.49754264701444,"lng":19.038827949154264,"venue":{"id":"4fe9cadfe4b0acc4d94052a4","name":"Budapest Terrace","url":"https:\/\/foursquare.com\/v\/budapest-terrace\/4fe9cadfe4b0acc4d94052a4"}},{"id":"670928d4b32f192c6c66bf7e","startTime":"2024-10-11 13:32:00.000000","endTime":"2024-10-11 14:56:23.000000","venueId":"5931955f123a1963f5eb269d","lat":47.50160063828333,"lng":19.034551685880253,"venue":{"id":"5931955f123a1963f5eb269d","name":"Chimney Cake","url":"https:\/\/foursquare.com\/v\/chimney-cake\/5931955f123a1963f5eb269d"}},{"id":"67091bffb32f192c6c4ba05a","startTime":"2024-10-11 12:37:18.000000","endTime":"2024-10-11 13:24:02.000000","venueId":"4cd55b6689eb6dcb5e0b281e","lat":47.499594433146754,"lng":19.040010861187007,"venue":{"id":"4cd55b6689eb6dcb5e0b281e","name":"Ildik√≥ Konyh√°ja","url":"https:\/\/foursquare.com\/v\/ildik%C3%B3-konyh%C3%A1ja\/4cd55b6689eb6dcb5e0b281e"}},{"id":"6708fa1e58a6f5647df4843f","startTime":"2024-10-11 10:12:38.000000","endTime":"2024-10-11 12:04:18.000000","venueId":"4bb4d43dbc82a593b8e63e72","lat":47.48708134591769,"lng":19.058130896104522,"venue":{"id":"4bb4d43dbc82a593b8e63e72","name":"Central Market (V√°s√°rcsarnok)","url":"https:\/\/foursquare.com\/v\/v%C3%A1s%C3%A1rcsarnok--central-market\/4bb4d43dbc82a593b8e63e72"}},{"id":"6708ddcfb32f192c6cda34c6","startTime":"2024-10-11 08:11:54.000000","endTime":"2024-10-11 09:31:46.000000","venueId":"4bc3185fb492d13a883ba860","lat":47.50957497886279,"lng":19.04665204165756,"venue":{"id":"4bc3185fb492d13a883ba860","name":"Biarritz","url":"https:\/\/foursquare.com\/v\/biarritz\/4bc3185fb492d13a883ba860"}},{"id":"670848d858a6f5647d10ca2b","startTime":"2024-10-10 21:36:20.000000","endTime":"2024-10-11 07:42:47.000000","venueId":"55c73456498e332a1d857d3d","lat":47.50845131998045,"lng":19.04729289692557,"venue":{"id":"55c73456498e332a1d857d3d","name":"Elys√©e Bistro&K√°v√©h√°z","url":"https:\/\/foursquare.com\/v\/elys%C3%A9e-bistrok%C3%A1v%C3%A9h%C3%A1z\/55c73456498e332a1d857d3d"}},{"id":"67081fdbb32f192c6cddc597","startTime":"2024-10-10 18:41:29.000000","endTime":"2024-10-10 21:10:19.000000","venueId":"4bae56faf964a520e6a43be3","lat":47.49811322225358,"lng":19.060982081380384,"venue":{"id":"4bae56faf964a520e6a43be3","name":"Doblo Wine & Bar","url":"https:\/\/foursquare.com\/v\/doblo-wine--bar\/4bae56faf964a520e6a43be3"}},{"id":"6708116d32f2ec3d40ab6802","startTime":"2024-10-10 17:39:43.000000","endTime":"2024-10-10 18:36:30.000000","venueId":"4de53ce7fa764cf4bec3bb6c","lat":47.50112976355443,"lng":19.060887376054787,"venue":{"id":"4de53ce7fa764cf4bec3bb6c","name":"Nappali K√°v√©h√°z","url":"https:\/\/foursquare.com\/v\/nappali-k%C3%A1v%C3%A9h%C3%A1z\/4de53ce7fa764cf4bec3bb6c"}},{"id":"67080214faaf33010dc1aae7","startTime":"2024-10-10 16:34:25.000000","endTime":"2024-10-10 17:17:24.000000","venueId":"55c73456498e332a1d857d3d","lat":47.50849682601695,"lng":19.04728805745758,"venue":{"id":"55c73456498e332a1d857d3d","name":"Elys√©e Bistro&K√°v√©h√°z","url":"https:\/\/foursquare.com\/v\/elys%C3%A9e-bistrok%C3%A1v%C3%A9h%C3%A1z\/55c73456498e332a1d857d3d"}},{"id":"6707fcb19f903277ae8ee62e","startTime":"2024-10-10 16:11:27.000000","endTime":"2024-10-10 16:16:22.000000","venueId":"53aeadfc498e59958f246fac","lat":47.5007855444056,"lng":19.05307329668242,"venue":{"id":"53aeadfc498e59958f246fac","name":"St. Stephen's Basilica Rooftop (Szent Istv√°n Bazilika tet≈ët√©ri)","url":"https:\/\/foursquare.com\/v\/szent-istv%C3%A1n-bazilika-tet%C5%91t%C3%A9ri-kil%C3%A1t%C3%B3\/53aeadfc498e59958f246fac"}},{"id":"6707ec279f903277ae6a17d3","startTime":"2024-10-10 15:00:51.000000","endTime":"2024-10-10 15:44:33.000000","venueId":"501183cfe4b035d9f36407b7","lat":47.496732100831316,"lng":19.06369616687102,"venue":{"id":"501183cfe4b035d9f36407b7","name":"Bors Gasztrob√°r","url":"https:\/\/foursquare.com\/v\/bors-gasztrob%C3%A1r\/501183cfe4b035d9f36407b7"}},{"id":"6707ea460a50355f54a07af9","startTime":"2024-10-10 14:52:53.000000","endTime":"2024-10-10 14:55:59.000000","venueId":"5d061046971317002da6a768","lat":47.49628623450873,"lng":19.06022857083231,"venue":{"id":"5d061046971317002da6a768","name":"Garden of remembrance (Az eml√©kezet kertje)","url":"https:\/\/foursquare.com\/v\/az-eml%C3%A9kezet-kertje\/5d061046971317002da6a768"}},{"id":"6707e45b9f903277ae58e210","startTime":"2024-10-10 14:27:36.000000","endTime":"2024-10-10 14:31:31.000000","venueId":"59064651446ea60929669886","lat":47.499716383405186,"lng":19.04623534146923,"venue":{"id":"59064651446ea60929669886","name":"Pontoon","url":"https:\/\/foursquare.com\/v\/pontoon\/59064651446ea60929669886"}},{"id":"6707d199faaf33010d586cc2","startTime":"2024-10-10 13:07:33.000000","endTime":"2024-10-10 14:10:38.000000","venueId":"55c73456498e332a1d857d3d","lat":47.50814709099647,"lng":19.047299745451205,"venue":{"id":"55c73456498e332a1d857d3d","name":"Elys√©e Bistro&K√°v√©h√°z","url":"https:\/\/foursquare.com\/v\/elys%C3%A9e-bistrok%C3%A1v%C3%A9h%C3%A1z\/55c73456498e332a1d857d3d"}},{"id":"6707a2b49f903277aed6929d","startTime":"2024-10-10 09:47:03.000000","endTime":"2024-10-10 09:50:25.000000","venueId":"4cff7e9321ea6ea887f33c9f","lat":48.18459980463909,"lng":16.378805849690224,"venue":{"id":"4cff7e9321ea6ea887f33c9f","name":"Vienna Central Station (Wien Hauptbahnhof)","url":"https:\/\/foursquare.com\/v\/wien-hauptbahnhof\/4cff7e9321ea6ea887f33c9f"}},{"id":"67079d21faaf33010df33994","startTime":"2024-10-10 09:23:42.000000","endTime":"2024-10-10 09:37:51.000000","venueId":"548d3af4498ecee894f98be0","lat":48.18570381123775,"lng":16.376778960639164,"venue":{"id":"548d3af4498ecee894f98be0","name":"√ñBB Lounge","url":"https:\/\/foursquare.com\/v\/%C3%B6bb-lounge\/548d3af4498ecee894f98be0"}},{"id":"6706f05632f2ec3d40e34ea2","startTime":"2024-10-09 21:06:30.000000","endTime":"2024-10-10 09:14:44.000000","venueId":"50c60156498eb4ce486a160e","lat":48.19804471330302,"lng":16.382426195345683,"venue":{"id":"50c60156498eb4ce486a160e","name":"Botschaft der VR China","url":"https:\/\/foursquare.com\/v\/botschaft-der-vr-china\/50c60156498eb4ce486a160e"}},{"id":"6706cb149f903277aeb50441","startTime":"2024-10-09 18:27:24.000000","endTime":"2024-10-09 20:57:28.000000","venueId":"56b5c717498e78bd2f749bf2","lat":48.205268031921584,"lng":16.352539858078337,"venue":{"id":"56b5c717498e78bd2f749bf2","name":"Erich","url":"https:\/\/foursquare.com\/v\/erich\/56b5c717498e78bd2f749bf2"}},{"id":"67069744faaf33010d6ed771","startTime":"2024-10-09 14:46:09.000000","endTime":"2024-10-09 18:08:30.000000","venueId":"4b058890f964a520c5cd22e3","lat":48.21402690510504,"lng":16.40156507826842,"venue":{"id":"4b058890f964a520c5cd22e3","name":"Schweizerhaus","url":"https:\/\/foursquare.com\/v\/schweizerhaus\/4b058890f964a520c5cd22e3"}},{"id":"6706862b9f903277ae2381e6","startTime":"2024-10-09 13:33:30.000000","endTime":"2024-10-09 14:40:26.000000","venueId":"4e1eff298130f3a2268acf3c","lat":48.18254778898398,"lng":16.31008983977912,"venue":{"id":"4e1eff298130f3a2268acf3c","name":"Irrgarten Sch√∂nbrunn","url":"https:\/\/foursquare.com\/v\/irrgarten-sch%C3%B6nbrunn\/4e1eff298130f3a2268acf3c"}},{"id":"670675f4b5b0c539eba6fc27","startTime":"2024-10-09 12:24:14.000000","endTime":"2024-10-09 13:27:19.000000","venueId":"4dced02052b1f8915ba08042","lat":48.18485024785916,"lng":16.312794338889145,"venue":{"id":"4dced02052b1f8915ba08042","name":"Imperialsaal","url":"https:\/\/foursquare.com\/v\/imperialsaal\/4dced02052b1f8915ba08042"}},{"id":"6706721e0a50355f54358c16","startTime":"2024-10-09 12:07:04.000000","endTime":"2024-10-09 12:11:35.000000","venueId":"4fb8d813e4b0510baa5891a7","lat":48.182844659248296,"lng":16.305341334109816,"venue":{"id":"4fb8d813e4b0510baa5891a7","name":"L√∂wengehege","url":"https:\/\/foursquare.com\/v\/l%C3%B6wengehege\/4fb8d813e4b0510baa5891a7"}},{"id":"67066b53faaf33010d153f6b","startTime":"2024-10-09 11:38:44.000000","endTime":"2024-10-09 11:51:56.000000","venueId":"4b058893f964a52081ce22e3","lat":48.18665803158626,"lng":16.313318188291056,"venue":{"id":"4b058893f964a52081ce22e3","name":"Sch√∂nbrunn Palace (Schloss Sch√∂nbrunn)","url":"https:\/\/foursquare.com\/v\/schloss-sch%C3%B6nbrunn\/4b058893f964a52081ce22e3"}},{"id":"67065d63faaf33010dfac382","startTime":"2024-10-09 10:39:26.000000","endTime":"2024-10-09 11:17:09.000000","venueId":"4c3dbca67d00d13ae09c3a50","lat":48.198305647905215,"lng":16.382890447916772,"venue":{"id":"4c3dbca67d00d13ae09c3a50","name":"Botschaft der Bundesrepublik Deutschland","url":"https:\/\/foursquare.com\/v\/botschaft-der-bundesrepublik-deutschland\/4c3dbca67d00d13ae09c3a50"}},{"id":"67065106b5b0c539eb60ebd3","startTime":"2024-10-09 09:46:32.000000","endTime":"2024-10-09 10:14:29.000000","venueId":"4b058893f964a52096ce22e3","lat":48.20740687062596,"lng":16.39383619434381,"venue":{"id":"4b058893f964a52096ce22e3","name":"Hundertwasserhaus","url":"https:\/\/foursquare.com\/v\/hundertwasserhaus\/4b058893f964a52096ce22e3"}},{"id":"67063f30b5b0c539eb41801a","startTime":"2024-10-09 08:30:40.000000","endTime":"2024-10-09 09:22:42.000000","venueId":"4c4b0d51c668e21e5d4887f9","lat":48.1991499799913,"lng":16.383629274022102,"venue":{"id":"4c4b0d51c668e21e5d4887f9","name":"Modenapark","url":"https:\/\/foursquare.com\/v\/modenapark\/4c4b0d51c668e21e5d4887f9"}},{"id":"67058a589f903277aebe34df","startTime":"2024-10-08 19:39:02.000000","endTime":"2024-10-09 08:25:33.000000","venueId":"50c60156498eb4ce486a160e","lat":48.19818998074568,"lng":16.382898847133315,"venue":{"id":"50c60156498eb4ce486a160e","name":"Botschaft der VR China","url":"https:\/\/foursquare.com\/v\/botschaft-der-vr-china\/50c60156498eb4ce486a160e"}},{"id":"670547ddb5b0c539ebdf9c4a","startTime":"2024-10-08 14:55:25.000000","endTime":"2024-10-08 19:16:03.000000","venueId":"4b058896f964a52030cf22e3","lat":48.251302698377565,"lng":16.301177651548272,"venue":{"id":"4b058896f964a52030cf22e3","name":"Fuhrgassl-Huber","url":"https:\/\/foursquare.com\/v\/fuhrgasslhuber\/4b058896f964a52030cf22e3"}},{"id":"6705333dfaaf33010d372123","startTime":"2024-10-08 13:27:18.000000","endTime":"2024-10-08 14:22:24.000000","venueId":"4c3dbca67d00d13ae09c3a50","lat":48.19824577645325,"lng":16.38289019911025,"venue":{"id":"4c3dbca67d00d13ae09c3a50","name":"Botschaft der Bundesrepublik Deutschland","url":"https:\/\/foursquare.com\/v\/botschaft-der-bundesrepublik-deutschland\/4c3dbca67d00d13ae09c3a50"}},{"id":"670527020a50355f5431ee77","startTime":"2024-10-08 12:35:11.000000","endTime":"2024-10-08 13:04:18.000000","venueId":"4c1036cbb93cc9b6777656e0","lat":48.20419025635176,"lng":16.368508960217635,"venue":{"id":"4c1036cbb93cc9b6777656e0","name":"Bitzinger Imbiss","url":"https:\/\/foursquare.com\/v\/bitzinger-imbiss\/4c1036cbb93cc9b6777656e0"}},{"id":"67052156faaf33010d1443ce","startTime":"2024-10-08 12:10:58.000000","endTime":"2024-10-08 12:26:09.000000","venueId":"5996cf2489e4907b704592c9","lat":48.199372900542926,"lng":16.364824630124094,"venue":{"id":"5996cf2489e4907b704592c9","name":"K√§selands Weineck - Vinothek","url":"https:\/\/foursquare.com\/v\/k%C3%A4selands-weineck--vinothek\/5996cf2489e4907b704592c9"}},{"id":"67051c86b5b0c539eb891ab4","startTime":"2024-10-08 11:50:30.000000","endTime":"2024-10-08 12:00:01.000000","venueId":"4b5eeed4f964a520799e29e3","lat":48.197992171066645,"lng":16.36225807786874,"venue":{"id":"4b5eeed4f964a520799e29e3","name":"NENI am Naschmarkt","url":"https:\/\/foursquare.com\/v\/neni-am-naschmarkt\/4b5eeed4f964a520799e29e3"}},{"id":"670514c2faaf33010dfcc12e","startTime":"2024-10-08 11:17:21.000000","endTime":"2024-10-08 11:42:29.000000","venueId":"4b058894f964a520e7ce22e3","lat":48.200059706413604,"lng":16.365786749882687,"venue":{"id":"4b058894f964a520e7ce22e3","name":"Secession","url":"https:\/\/foursquare.com\/v\/secession\/4b058894f964a520e7ce22e3"}},{"id":"67051006faaf33010df3db66","startTime":"2024-10-08 10:57:03.000000","endTime":"2024-10-08 11:07:16.000000","venueId":"59ce6f69e1f2284e67e06503","lat":48.2048869513711,"lng":16.36954034260948,"venue":{"id":"59ce6f69e1f2284e67e06503","name":"Joseph Brot Bagelmanufaktur","url":"https:\/\/foursquare.com\/v\/joseph-brot-bagelmanufaktur\/59ce6f69e1f2284e67e06503"}},{"id":"6704fd159f903277aea8ddf8","startTime":"2024-10-08 09:36:16.000000","endTime":"2024-10-08 10:46:07.000000","venueId":"4b058890f964a520aecd22e3","lat":48.20779465866128,"lng":16.36977495329699,"venue":{"id":"4b058890f964a520aecd22e3","name":"Caf√© Hawelka","url":"https:\/\/foursquare.com\/v\/caf%C3%A9-hawelka\/4b058890f964a520aecd22e3"}},{"id":"67045581faaf33010d04e9ba","startTime":"2024-10-07 21:41:19.000000","endTime":"2024-10-08 09:10:15.000000","venueId":"50c60156498eb4ce486a160e","lat":48.1981799424819,"lng":16.38275984744127,"venue":{"id":"50c60156498eb4ce486a160e","name":"Botschaft der VR China","url":"https:\/\/foursquare.com\/v\/botschaft-der-vr-china\/50c60156498eb4ce486a160e"}},{"id":"670441adfaaf33010de911de","startTime":"2024-10-07 20:16:43.000000","endTime":"2024-10-07 21:19:21.000000","venueId":"4b058891f964a52000ce22e3","lat":48.20432698382792,"lng":16.369413529123545,"venue":{"id":"4b058891f964a52000ce22e3","name":"Crossfield's Australian Pub","url":"https:\/\/foursquare.com\/v\/crossfields-australian-pub\/4b058891f964a52000ce22e3"}},{"id":"67043ef6faaf33010de4d465","startTime":"2024-10-07 20:04:41.000000","endTime":"2024-10-07 20:10:45.000000","venueId":"4b058890f964a520aecd22e3","lat":48.20776939592291,"lng":16.369745453194167,"venue":{"id":"4b058890f964a520aecd22e3","name":"Caf√© Hawelka","url":"https:\/\/foursquare.com\/v\/caf%C3%A9-hawelka\/4b058890f964a520aecd22e3"}},{"id":"670426db9f903277ae945f87","startTime":"2024-10-07 18:22:18.000000","endTime":"2024-10-07 19:48:45.000000","venueId":"4d39abaebeb7b1f720b2e171","lat":48.20012951729845,"lng":16.3656169029269,"venue":{"id":"4d39abaebeb7b1f720b2e171","name":"WEIN & CO Naschmarkt","url":"https:\/\/foursquare.com\/v\/wein--co-naschmarkt\/4d39abaebeb7b1f720b2e171"}},{"id":"6703f720faaf33010d5a1046","startTime":"2024-10-07 14:58:40.000000","endTime":"2024-10-07 18:10:17.000000","venueId":"4b058891f964a5200cce22e3","lat":48.203514767922144,"lng":16.37316796084896,"venue":{"id":"4b058891f964a5200cce22e3","name":"1516 Brewing Company","url":"https:\/\/foursquare.com\/v\/1516-brewing-company\/4b058891f964a5200cce22e3"}},{"id":"6703df0cb5b0c539eba6b6f3","startTime":"2024-10-07 13:15:51.000000","endTime":"2024-10-07 14:42:37.000000","venueId":"50c60156498eb4ce486a160e","lat":48.19815921195719,"lng":16.382803367250176,"venue":{"id":"50c60156498eb4ce486a160e","name":"Botschaft der VR China","url":"https:\/\/foursquare.com\/v\/botschaft-der-vr-china\/50c60156498eb4ce486a160e"}},{"id":"6703c2f9b5b0c539eb715f52","startTime":"2024-10-07 11:16:01.000000","endTime":"2024-10-07 13:06:55.000000","venueId":"4e772eee1838f9188a9720aa","lat":49.117594979906265,"lng":16.604230008269738,"venue":{"id":"4e772eee1838f9188a9720aa","name":"OMV","url":"https:\/\/foursquare.com\/v\/omv\/4e772eee1838f9188a9720aa"}},{"id":"6703a468faaf33010dba4f79","startTime":"2024-10-07 09:05:41.000000","endTime":"2024-10-07 09:08:05.000000","venueId":"4f54bc14e4b0238460e24edc","lat":50.08286482926252,"lng":14.414532795360318,"venue":{"id":"4f54bc14e4b0238460e24edc","name":"Bistro & Shop No. 19","url":"https:\/\/foursquare.com\/v\/bistro--shop-no-19\/4f54bc14e4b0238460e24edc"}},{"id":"6703a327faaf33010db82147","startTime":"2024-10-07 09:00:08.000000","endTime":"2024-10-07 09:01:56.000000","venueId":"4cc06a658db3b60c7c377e78","lat":50.088915051490744,"lng":14.415421694887753,"venue":{"id":"4cc06a658db3b60c7c377e78","name":"N√°mƒõst√≠ Jana Palacha","url":"https:\/\/foursquare.com\/v\/n%C3%A1m%C4%9Bst%C3%AD-jana-palacha\/4cc06a658db3b60c7c377e78"}},{"id":"6702f821faaf33010deb8eb3","startTime":"2024-10-06 20:50:37.000000","endTime":"2024-10-07 08:51:07.000000","venueId":"4c64ea3ddddfa593a2ed92ff","lat":50.088343490503085,"lng":14.4154457837676,"venue":{"id":"4c64ea3ddddfa593a2ed92ff","name":"Staromƒõstsk√° (tram)","url":"https:\/\/foursquare.com\/v\/starom%C4%9Bstsk%C3%A1-tram\/4c64ea3ddddfa593a2ed92ff"}},{"id":"6702c482b5b0c539eb0d65dc","startTime":"2024-10-06 17:10:10.000000","endTime":"2024-10-06 20:44:33.000000","venueId":"4ec2404129c25ce5a30f3ebe","lat":50.0880174081125,"lng":14.42316354348482,"venue":{"id":"4ec2404129c25ce5a30f3ebe","name":"House at the Golden Ring (D≈Øm U Zlat√©ho prstenu)","url":"https:\/\/foursquare.com\/v\/d%C5%AFm-u-zlat%C3%A9ho-prstenu\/4ec2404129c25ce5a30f3ebe"}},{"id":"6702bfb90a50355f54972d7e","startTime":"2024-10-06 16:50:01.000000","endTime":"2024-10-06 16:54:11.000000","venueId":"552191f6498e341e6a93b894","lat":50.07944044325363,"lng":14.430136301810304,"venue":{"id":"552191f6498e341e6a93b894","name":"Mangal","url":"https:\/\/foursquare.com\/v\/mangal\/552191f6498e341e6a93b894"}},{"id":"6702bb8dfaaf33010d7bd5cf","startTime":"2024-10-06 16:31:59.000000","endTime":"2024-10-06 16:34:11.000000","venueId":"4adcdaa3f964a5208a4e21e3","lat":50.08709817581243,"lng":14.428888374286556,"venue":{"id":"4adcdaa3f964a5208a4e21e3","name":"Hybernia Theatre (Divadlo Hybernia)","url":"https:\/\/foursquare.com\/v\/divadlo-hybernia\/4adcdaa3f964a5208a4e21e3"}},{"id":"6702b8100a50355f5487283f","startTime":"2024-10-06 16:17:18.000000","endTime":"2024-10-06 16:20:13.000000","venueId":"640cbd35bd678b5f0eec10ee","lat":50.086271454764635,"lng":14.419069782927577,"venue":{"id":"640cbd35bd678b5f0eec10ee","name":"Old Czech Chimney Cake","url":"https:\/\/foursquare.com\/v\/old-czech-chimney-cake\/640cbd35bd678b5f0eec10ee"}},{"id":"6702af68faaf33010d62277c","startTime":"2024-10-06 15:40:20.000000","endTime":"2024-10-06 16:09:20.000000","venueId":"4c64ea3ddddfa593a2ed92ff","lat":50.088212255278684,"lng":14.415756440534382,"venue":{"id":"4c64ea3ddddfa593a2ed92ff","name":"Staromƒõstsk√° (tram)","url":"https:\/\/foursquare.com\/v\/starom%C4%9Bstsk%C3%A1-tram\/4c64ea3ddddfa593a2ed92ff"}},{"id":"6702ac069f903277ae341fe5","startTime":"2024-10-06 15:25:25.000000","endTime":"2024-10-06 15:36:24.000000","venueId":"4c4ec86e960e76b021c913e7","lat":50.0846315267302,"lng":14.41348528517538,"venue":{"id":"4c4ec86e960e76b021c913e7","name":"Karlovy l√°znƒõ (tram)","url":"https:\/\/foursquare.com\/v\/karlovy-l%C3%A1zn%C4%9B-tram\/4c4ec86e960e76b021c913e7"}},{"id":"67028b08b5b0c539eb963c13","startTime":"2024-10-06 13:05:11.000000","endTime":"2024-10-06 14:32:57.000000","venueId":"64a546b2271c944b8614f86f","lat":50.06382522226597,"lng":14.422598308826213,"venue":{"id":"64a546b2271c944b8614f86f","name":"Na Hradb√°ch","url":"https:\/\/foursquare.com\/v\/na-hradb%C3%A1ch\/64a546b2271c944b8614f86f"}},{"id":"670288610a50355f5424c519","startTime":"2024-10-06 12:53:52.000000","endTime":"2024-10-06 12:58:57.000000","venueId":"58e12aa7a370b96bd93f89f0","lat":50.062812345367455,"lng":14.417408727127778,"venue":{"id":"58e12aa7a370b96bd93f89f0","name":"Alt√°nek v Podolsk√© porodnici","url":"https:\/\/foursquare.com\/v\/alt%C3%A1nek-v-podolsk%C3%A9-porodnici\/58e12aa7a370b96bd93f89f0"}},{"id":"6702873d0a50355f54229f02","startTime":"2024-10-06 12:48:57.000000","endTime":"2024-10-06 12:50:32.000000","venueId":"4df4c5aafa76abc3d8714162","lat":50.0643252409763,"lng":14.417310579537366,"venue":{"id":"4df4c5aafa76abc3d8714162","name":"Basilica of St. Peter and Paul (Bazilika sv. Petra a Pavla)","url":"https:\/\/foursquare.com\/v\/bazilika-sv-petra-a-pavla\/4df4c5aafa76abc3d8714162"}},{"id":"670282da0a50355f541a6e11","startTime":"2024-10-06 12:30:04.000000","endTime":"2024-10-06 12:39:00.000000","venueId":"51be18a0498e6a6feceafe6b","lat":50.065404320518816,"lng":14.416270351089079,"venue":{"id":"51be18a0498e6a6feceafe6b","name":"Schody v parku Pod hradbami","url":"https:\/\/foursquare.com\/v\/schody-v-parku-pod-hradbami\/51be18a0498e6a6feceafe6b"}},{"id":"6702816a0a50355f5417c544","startTime":"2024-10-06 12:24:09.000000","endTime":"2024-10-06 12:28:18.000000","venueId":"4ba83447f964a52020d139e3","lat":50.06703494201757,"lng":14.41508151205679,"venue":{"id":"4ba83447f964a52020d139e3","name":"Railway Bridge (≈Ωelezniƒçn√≠ most)","url":"https:\/\/foursquare.com\/v\/%C5%BEelezni%C4%8Dn%C3%AD-most\/4ba83447f964a52020d139e3"}},{"id":"67026e680a50355f54f55581","startTime":"2024-10-06 11:03:00.000000","endTime":"2024-10-06 12:05:08.000000","venueId":"5a44cf7925ecca3a34a3b288","lat":50.06956941926975,"lng":14.405815204484538,"venue":{"id":"5a44cf7925ecca3a34a3b288","name":"Taro","url":"https:\/\/foursquare.com\/v\/taro\/5a44cf7925ecca3a34a3b288"}},{"id":"67025faafaaf33010dc822bd","startTime":"2024-10-06 09:59:56.000000","endTime":"2024-10-06 10:42:57.000000","venueId":"5ae42fe3bd4009002c863a21","lat":50.06886990124677,"lng":14.414585827878769,"venue":{"id":"5ae42fe3bd4009002c863a21","name":"Pivovar U Vack≈Ø na N√°plavce","url":"https:\/\/foursquare.com\/v\/pivovar-u-vack%C5%AF-na-n%C3%A1plavce\/5ae42fe3bd4009002c863a21"}},{"id":"6702539cfaaf33010db2c7ca","startTime":"2024-10-06 09:08:38.000000","endTime":"2024-10-06 09:26:56.000000","venueId":"4c64ea3ddddfa593a2ed92ff","lat":50.088270894892155,"lng":14.41537198965631,"venue":{"id":"4c64ea3ddddfa593a2ed92ff","name":"Staromƒõstsk√° (tram)","url":"https:\/\/foursquare.com\/v\/starom%C4%9Bstsk%C3%A1-tram\/4c64ea3ddddfa593a2ed92ff"}},{"id":"67017029b5b0c539ebe60cfc","startTime":"2024-10-05 16:58:11.000000","endTime":"2024-10-06 09:04:36.000000","venueId":"4b9abea2f964a520e9d135e3","lat":50.088100615878496,"lng":14.415626487289105,"venue":{"id":"4b9abea2f964a520e9d135e3","name":"U Rudolfina","url":"https:\/\/foursquare.com\/v\/u-rudolfina\/4b9abea2f964a520e9d135e3"}},{"id":"67016e59b5b0c539ebe19e99","startTime":"2024-10-05 16:50:27.000000","endTime":"2024-10-05 16:56:12.000000","venueId":"4b46aa34f964a520822626e3","lat":50.08616931120385,"lng":14.414002329353556,"venue":{"id":"4b46aa34f964a520822626e3","name":"Charles Bridge (Karl≈Øv most)","url":"https:\/\/foursquare.com\/v\/karl%C5%AFv-most--charles-bridge\/4b46aa34f964a520822626e3"}},{"id":"67015f669f903277ae152f8c","startTime":"2024-10-05 15:46:45.000000","endTime":"2024-10-05 16:38:32.000000","venueId":"4d88d145d85f370415a7d9db","lat":50.088193886744826,"lng":14.409944366596319,"venue":{"id":"4d88d145d85f370415a7d9db","name":"Tkalcovsk√Ω dv≈Ør","url":"https:\/\/foursquare.com\/v\/tkalcovsk%C3%BD-dv%C5%AFr\/4d88d145d85f370415a7d9db"}},{"id":"67015c04b5b0c539ebb47d59","startTime":"2024-10-05 15:32:14.000000","endTime":"2024-10-05 15:37:36.000000","venueId":"5526c554498e81caef8a9909","lat":50.08761116429018,"lng":14.407870526570019,"venue":{"id":"5526c554498e81caef8a9909","name":"Caf√© Club M√≠≈°e≈àsk√°","url":"https:\/\/foursquare.com\/v\/caf%C3%A9-club-m%C3%AD%C5%A1e%C5%88sk%C3%A1\/5526c554498e81caef8a9909"}},{"id":"670159acfaaf33010d2e197c","startTime":"2024-10-05 15:22:20.000000","endTime":"2024-10-05 15:26:19.000000","venueId":"5de62ac7b75eed0007e3fcc6","lat":50.08994174154361,"lng":14.410262620063365,"venue":{"id":"5de62ac7b75eed0007e3fcc6","name":"Slivovitz Museum (Muzeum slivovice)","url":"https:\/\/foursquare.com\/v\/slivovitz-museum-r-jel%C3%ADnek\/5de62ac7b75eed0007e3fcc6"}},{"id":"670157eafaaf33010d29a24a","startTime":"2024-10-05 15:14:47.000000","endTime":"2024-10-05 15:19:59.000000","venueId":"57f157fd498ed51b00f67e0a","lat":50.09230933047088,"lng":14.409083976719534,"venue":{"id":"57f157fd498ed51b00f67e0a","name":"Bistro Castle Stairs","url":"https:\/\/foursquare.com\/v\/bistro-castle-stairs\/57f157fd498ed51b00f67e0a"}},{"id":"67014e299f903277aeea1d86","startTime":"2024-10-05 14:33:13.000000","endTime":"2024-10-05 14:56:52.000000","venueId":"50a128f3e4b044f765bc8076","lat":50.091952131082024,"lng":14.403883125754003,"venue":{"id":"50a128f3e4b044f765bc8076","name":"Zlat√° uliƒçka","url":"https:\/\/foursquare.com\/v\/zlat%C3%A1-uli%C4%8Dka\/50a128f3e4b044f765bc8076"}},{"id":"670145d0b5b0c539eb7e6981","startTime":"2024-10-05 13:57:35.000000","endTime":"2024-10-05 14:28:13.000000","venueId":"4b892bfaf964a520cd2032e3","lat":50.090619541395604,"lng":14.399792614560099,"venue":{"id":"4b892bfaf964a520cd2032e3","name":"St. Vitus Cathedral (Katedr√°la sv. V√≠ta)","url":"https:\/\/foursquare.com\/v\/katedr%C3%A1la-sv-v%C3%ADta--saint-vitus-cathedral\/4b892bfaf964a520cd2032e3"}},{"id":"670134fffaaf33010dd847ae","startTime":"2024-10-05 12:45:49.000000","endTime":"2024-10-05 13:40:36.000000","venueId":"5526c554498e81caef8a9909","lat":50.08766348112872,"lng":14.408105681056208,"venue":{"id":"5526c554498e81caef8a9909","name":"Caf√© Club M√≠≈°e≈àsk√°","url":"https:\/\/foursquare.com\/v\/caf%C3%A9-club-m%C3%AD%C5%A1e%C5%88sk%C3%A1\/5526c554498e81caef8a9909"}},{"id":"6701320a9f903277aeab39dd","startTime":"2024-10-05 12:33:08.000000","endTime":"2024-10-05 12:42:46.000000","venueId":"4adcdaa1f964a520c74d21e3","lat":50.088110324319786,"lng":14.410244364887195,"venue":{"id":"4adcdaa1f964a520c74d21e3","name":"Franz Kafka Museum","url":"https:\/\/foursquare.com\/v\/franz-kafka-museum\/4adcdaa1f964a520c74d21e3"}},{"id":"67012dcab5b0c539eb4b4fcd","startTime":"2024-10-05 12:15:00.000000","endTime":"2024-10-05 12:24:11.000000","venueId":"4b46aa34f964a520822626e3","lat":50.08706917545085,"lng":14.407902776495245,"venue":{"id":"4b46aa34f964a520822626e3","name":"Charles Bridge (Karl≈Øv most)","url":"https:\/\/foursquare.com\/v\/karl%C5%AFv-most--charles-bridge\/4b46aa34f964a520822626e3"}},{"id":"670129b00a50355f54d4b966","startTime":"2024-10-05 11:57:34.000000","endTime":"2024-10-05 12:05:58.000000","venueId":"4b46aa34f964a520822626e3","lat":50.086506950007525,"lng":14.411900809919306,"venue":{"id":"4b46aa34f964a520822626e3","name":"Charles Bridge (Karl≈Øv most)","url":"https:\/\/foursquare.com\/v\/karl%C5%AFv-most--charles-bridge\/4b46aa34f964a520822626e3"}},{"id":"67011d9fb5b0c539eb2c4b22","startTime":"2024-10-05 11:06:03.000000","endTime":"2024-10-05 11:52:35.000000","venueId":"4c64ea3ddddfa593a2ed92ff","lat":50.08834607173362,"lng":14.415425695154319,"venue":{"id":"4c64ea3ddddfa593a2ed92ff","name":"Staromƒõstsk√° (tram)","url":"https:\/\/foursquare.com\/v\/starom%C4%9Bstsk%C3%A1-tram\/4c64ea3ddddfa593a2ed92ff"}},{"id":"670119e19f903277ae7ccf27","startTime":"2024-10-05 10:50:07.000000","endTime":"2024-10-05 11:03:06.000000","venueId":"507956b2e4b0199a3348fcd1","lat":50.0893478277751,"lng":14.418886403714364,"venue":{"id":"507956b2e4b0199a3348fcd1","name":"Knihkupectv√≠ Franze Kafky","url":"https:\/\/foursquare.com\/v\/knihkupectv%C3%AD-franze-kafky\/507956b2e4b0199a3348fcd1"}},{"id":"67010cc30a50355f549faa6e","startTime":"2024-10-05 09:54:05.000000","endTime":"2024-10-05 10:37:05.000000","venueId":"5311ae7311d2b14c76832d24","lat":50.09070409885859,"lng":14.42703290971764,"venue":{"id":"5311ae7311d2b14c76832d24","name":"Na≈°e maso","url":"https:\/\/foursquare.com\/v\/na%C5%A1e-maso\/5311ae7311d2b14c76832d24"}},{"id":"670107889f903277ae5cfe04","startTime":"2024-10-05 09:31:50.000000","endTime":"2024-10-05 09:39:10.000000","venueId":"4adcda9cf964a5202f4d21e3","lat":50.086947363409635,"lng":14.420812998722853,"venue":{"id":"4adcda9cf964a5202f4d21e3","name":"Prague Astronomical Clock (Pra≈æsk√Ω orloj)","url":"https:\/\/foursquare.com\/v\/pra%C5%BEsk%C3%BD-orloj\/4adcda9cf964a5202f4d21e3"}},{"id":"670067ab0a50355f54c650ce","startTime":"2024-10-04 22:09:47.000000","endTime":"2024-10-05 09:19:50.000000","venueId":"4b9abea2f964a520e9d135e3","lat":50.088074081602606,"lng":14.415634064868387,"venue":{"id":"4b9abea2f964a520e9d135e3","name":"U Rudolfina","url":"https:\/\/foursquare.com\/v\/u-rudolfina\/4b9abea2f964a520e9d135e3"}},{"id":"670052dbaa0017634256d061","startTime":"2024-10-04 20:40:55.000000","endTime":"2024-10-04 22:00:46.000000","venueId":"55015dac498e3471c2ecaac9","lat":50.08603825981149,"lng":14.416419038983271,"venue":{"id":"55015dac498e3471c2ecaac9","name":"The Irish Times","url":"https:\/\/foursquare.com\/v\/the-irish-times\/55015dac498e3471c2ecaac9"}},{"id":"67003ad1b5b0c539ebdd6bbe","startTime":"2024-10-04 18:58:20.000000","endTime":"2024-10-04 20:28:57.000000","venueId":"4adcda9cf964a520094d21e3","lat":50.07892172146782,"lng":14.417193487287193,"venue":{"id":"4adcda9cf964a520094d21e3","name":"U Flek≈Ø","url":"https:\/\/foursquare.com\/v\/u-flek%C5%AF\/4adcda9cf964a520094d21e3"}},{"id":"67003680b5b0c539ebd432b8","startTime":"2024-10-04 18:39:59.000000","endTime":"2024-10-04 18:52:22.000000","venueId":"57d47eab498eddf03b8d5818","lat":50.083387600541656,"lng":14.416231247780615,"venue":{"id":"57d47eab498eddf03b8d5818","name":"Sad Man's Tongue Bar & Bistro","url":"https:\/\/foursquare.com\/v\/sad-mans-tongue-bar--bistro\/57d47eab498eddf03b8d5818"}},{"id":"670011e4ae89d704290e547d","startTime":"2024-10-04 16:03:43.000000","endTime":"2024-10-04 18:27:29.000000","venueId":"4adcda9af964a5206b4c21e3","lat":50.087374860104426,"lng":14.414681355554686,"venue":{"id":"4adcda9af964a5206b4c21e3","name":"Four Seasons Hotel Prague","url":"https:\/\/foursquare.com\/v\/four-seasons-hotel-prague\/4adcda9af964a5206b4c21e3"}},{"id":"66ffff3a01ade41f9e1a8da0","startTime":"2024-10-04 14:43:24.000000","endTime":"2024-10-04 14:49:57.000000","venueId":"4e5d2e1f1520ba22d6b29950","lat":49.7439017724955,"lng":13.581268051209634,"venue":{"id":"4e5d2e1f1520ba22d6b29950","name":"MOL","url":"https:\/\/foursquare.com\/v\/mol\/4e5d2e1f1520ba22d6b29950"}},{"id":"66fff0d971e1de2a1fb134f8","startTime":"2024-10-04 13:42:39.000000","endTime":"2024-10-04 13:51:31.000000","venueId":"4d9611abb188721e44f4ed36","lat":49.67685732037804,"lng":12.598378514495028,"venue":{"id":"4d9611abb188721e44f4ed36","name":"Shell","url":"https:\/\/foursquare.com\/v\/shell\/4d9611abb188721e44f4ed36"}},{"id":"66ffbe22fc447838a08b1617","startTime":"2024-10-04 10:06:15.000000","endTime":"2024-10-04 11:38:47.000000","venueId":"4ade0ca9f964a520616821e3","lat":48.395892303699085,"lng":11.72883949679329,"venue":{"id":"4ade0ca9f964a520616821e3","name":"Br√§ust√ºberl Weihenstephan","url":"https:\/\/foursquare.com\/v\/br%C3%A4ust%C3%BCberl-weihenstephan\/4ade0ca9f964a520616821e3"}},{"id":"66ffb70001ade41f9e88de40","startTime":"2024-10-04 09:35:56.000000","endTime":"2024-10-04 09:41:53.000000","venueId":"4db9a30ccda10f31e630ea2b","lat":48.400554657883156,"lng":11.74336172716394,"venue":{"id":"4db9a30ccda10f31e630ea2b","name":"Marienplatz","url":"https:\/\/foursquare.com\/v\/marienplatz\/4db9a30ccda10f31e630ea2b"}},{"id":"66ff08ac3f28550ba6d0054e","startTime":"2024-10-03 21:12:11.000000","endTime":"2024-10-04 08:43:06.000000","venueId":"66a26431a5930b7c7d7bdaaf","lat":48.10372126587993,"lng":11.30688314733427,"venue":{"id":"66a26431a5930b7c7d7bdaaf","name":"Schl√∂glhof Caf√©","url":"https:\/\/foursquare.com\/v\/schl%C3%B6glhof-caf%C3%A9\/66a26431a5930b7c7d7bdaaf"}},{"id":"66feef6429185251d8d6739a","startTime":"2024-10-03 19:24:19.000000","endTime":"2024-10-03 20:38:04.000000","venueId":"4b61756af964a5203d142ae3","lat":48.13662018796313,"lng":11.58013806404143,"venue":{"id":"4b61756af964a5203d142ae3","name":"Zum D√ºrnbr√§u","url":"https:\/\/foursquare.com\/v\/zum-d%C3%BCrnbr%C3%A4u\/4b61756af964a5203d142ae3"}},{"id":"66fec9eb5537e951ce2b4479","startTime":"2024-10-03 16:44:22.000000","endTime":"2024-10-03 19:19:16.000000","venueId":"5adcb65ac9f9076b1c0c7ccb","lat":48.13398695292605,"lng":11.579599548280346,"venue":{"id":"5adcb65ac9f9076b1c0c7ccb","name":"Xaver's","url":"https:\/\/foursquare.com\/v\/xavers\/5adcb65ac9f9076b1c0c7ccb"}},{"id":"66febe4bf4a714267af730bc","startTime":"2024-10-03 15:54:46.000000","endTime":"2024-10-03 16:26:24.000000","venueId":"4ade0ca7f964a520586821e3","lat":48.152307318988825,"lng":11.592358384705799,"venue":{"id":"4ade0ca7f964a520586821e3","name":"Biergarten am Chinesischen Turm","url":"https:\/\/foursquare.com\/v\/biergarten-am-chinesischen-turm\/4ade0ca7f964a520586821e3"}},